     2.10           OBSERVATION DATA    M                   RINEX VERSION / TYPE
OSPtoRINEX          FC                  20150130 211733 LCL PGM / RUN BY / DATE 
NONAME                                                      MARKER NAME         
NONUM                                                       MARKER NUMBER       
N/A                 N/A                                     OBSERVER / AGENCY   
SN4_4.1.1-B1_LPL_DBGSiRFIV              GSD4t_4.1.1-B1 04/12REC # / TYPE / VERS 
N/A                 UNKNOWN                                 ANT # / TYPE        
  4848586.0000  -327624.0000  4118342.0000                  APPROX POSITION XYZ 
        0.0000        0.0000        0.0000                  ANTENNA: DELTA H/E/N
     1     0     0                                          WAVELENGTH FACT L1/2
     4    C1    L1    D1    S1                              # / TYPES OF OBSERV 
     1.000                                                  INTERVAL            
  2015    01    30    12    27    5.3700000     GPS         TIME OF FIRST OBS   
                                                            END OF HEADER       
 15 01 30 12 27  5.3730888  0  8G03G07G09G10G16G20G23G30             0.000984129
  25245315.927 3         0.000       99909.874          23.000  
  21017877.715 6         0.000       95649.754          36.000  
  21057421.738 3         0.000       98698.444          22.000  
  20194227.348 2         0.000       96357.059          16.000  
  19215416.732 3         0.000       96323.415          22.000  
  21059097.916 6         0.000       98706.337          36.000  
  23193947.480 6         0.000       99619.246          37.000  
  22139326.912 4         0.000       93864.345          24.000  
 15 01 30 12 27  6.3730884  0  8G03G07G09G10G16G20G23G30             0.001045574
  25245910.874 3         0.000       99909.894          23.000  
  21017659.608 6         0.000       95649.415          36.000  
  21057794.159 3         0.000       98711.079          22.000  
  20194155.103 2         0.000       96346.364          16.000  
  19215326.705 3         0.000       96328.423          22.000  
  21059461.400 6         0.000       98705.362          36.000  
  23194484.505 6         0.000       99618.137          37.000  
  22138752.461 3         0.000       93864.007          20.000  
 15 01 30 12 27  7.3730881  0  8G03G07G09G10G16G20G23G30             0.001107079
  25246496.120 3         0.000       99907.564          23.000  
  21017423.452 6         0.000       95650.195          36.000  
  21058144.597 3         0.000       98700.097          22.000  
  20194062.410 2         0.000       96348.509          16.000  
  19215206.249 3         0.000       96317.236          22.000  
  21059806.772 6         0.000       98704.520          36.000  
  23195003.372 6         0.000       99616.639          37.000  
  22138178.343 3         0.000       93863.288          21.000  
 15 01 30 12 27  8.3730877  0  8G03G07G09G10G16G20G23G30             0.001168582
  25247074.538 3         0.000       99907.061          23.000  
  21017187.995 6         0.000       95649.015          36.000  
  21058491.761 3         0.000       98706.932          22.000  
  20193968.693 2         0.000       96343.901          17.000  
  19215101.661 3         0.000       96319.545          22.000  
  21060152.790 5         0.000       98705.290          35.000  
  23195522.858 6         0.000       99617.265          37.000  
  22137604.556 3         0.000       93858.721          21.000  
 15 01 30 12 27  9.3730873  0  8G03G07G09G10G16G20G23G30             0.001230092
  25247638.828 3         0.000       99905.563          23.000  
  21016950.502 6         0.000       95649.559          36.000  
  21058839.356 3         0.000       98701.965          22.000  
  20193871.099 2         0.000       96352.830          17.000  
  19214980.718 3         0.000       96323.117          21.000  
  21060496.702 5         0.000       98704.315          35.000  
  23196040.241 6         0.000       99616.433          37.000  
  22137040.008 3         0.000       93864.468          21.000  
 15 01 30 12 27 10.3730869  0  8G03G07G09G10G16G20G23G30             0.001291592
  25248216.243 3         0.000       99907.821          23.000  
  21016715.937 6         0.000       95649.795          36.000  
  21059179.531 3         0.000       98709.652          22.000  
  20193766.677 2         0.000       96345.441          17.000  
  19214871.637 3         0.000       96317.636          21.000  
  21060843.518 5         0.000       98703.874          35.000  
  23196560.476 6         0.000       99614.955          37.000  
  22136457.275 3         0.000       93870.760          21.000  
 15 01 30 12 27 11.3730865  0  8G03G07G09G10G16G20G23G30             0.001353095
  25248800.817 3         0.000       99905.902          23.000  
  21016480.409 6         0.000       95649.549          36.000  
  21059529.975 3         0.000       98692.614          22.000  
  20193667.360 3         0.000       96346.169          18.000  
  19214765.113 3         0.000       96313.161          21.000  
  21061189.281 5         0.000       98703.463          35.000  
  23197079.652 6         0.000       99614.165          37.000  
  22135888.909 3         0.000       93864.766          21.000  
 15 01 30 12 27 12.3730862  0  8G03G07G09G10G16G20G23G30             0.001414597
  25249373.718 3         0.000       99906.271          23.000  
  21016245.138 6         0.000       95648.892          36.000  
  21059868.766 3         0.000       98699.460          21.000  
  20193561.257 3         0.000       96345.533          18.000  
  19214655.136 3         0.000       96316.661          21.000  
  21061535.267 5         0.000       98702.447          35.000  
  23197598.999 6         0.000       99613.446          37.000  
  22135314.979 3         0.000       93861.523          21.000  
 15 01 30 12 27 13.3730858  0  8G03G07G09G10G16G20G23G30             0.001476094
  25249951.182 3         0.000       99903.828          23.000  
  21016011.188 6         0.000       95647.147          36.000  
  21060224.080 3         0.000       98703.946          21.000  
  20193459.218 3         0.000       96345.174          18.000  
  19214541.022 3         0.000       96312.432          21.000  
  21061882.518 5         0.000       98702.273          35.000  
  23198119.522 6         0.000       99612.820          37.000  
  22134733.426 3         0.000       93861.225          21.000  
 15 01 30 12 27 14.3730855  0  8G03G07G09G10G16G20G23G30             0.001537593
  25250532.436 3         0.000       99904.177          23.000  
  21015776.667 6         0.000       95648.461          36.000  
  21060575.200 3         0.000       98699.327          21.000  
  20193351.729 3         0.000       96346.703          18.000  
  19214439.587 3         0.000       96315.542          21.000  
  21062229.124 5         0.000       98702.601          35.000  
  23198639.368 6         0.000       99612.102          37.000  
  22134167.021 3         0.000       93858.598          22.000  
 15 01 30 12 27 15.3730851  0  8G03G07G09G10G16G20G23G30             0.001599088
  25251109.483 3         0.000       99903.664          23.000  
  21015543.409 6         0.000       95648.491          37.000  
  21060922.406 3         0.000       98700.086          22.000  
  20193250.516 3         0.000       96339.590          19.000  
  19214324.293 3         0.000       96321.742          21.000  
  21062576.942 5         0.000       98702.026          35.000  
  23199160.392 6         0.000       99612.595          37.000  
  22133584.406 3         0.000       93864.427          22.000  
 15 01 30 12 27 16.3730847  0  8G03G07G09G10G16G20G23G30             0.001660589
  25251679.093 3         0.000       99907.185          23.000  
  21015308.343 6         0.000       95648.615          37.000  
  21061273.397 3         0.000       98701.944          22.000  
  20193147.017 3         0.000       96344.240          19.000  
  19214213.168 3         0.000       96317.769          20.000  
  21062922.908 5         0.000       98701.369          35.000  
  23199679.506 6         0.000       99612.112          37.000  
  22133015.718 3         0.000       93862.149          22.000  
 15 01 30 12 27 17.3730844  0  8G03G07G09G10G16G20G23G30             0.001722084
  25252259.547 3         0.000       99898.850          23.000  
  21015075.037 6         0.000       95649.066          37.000  
  21061619.539 3         0.000       98704.582          22.000  
  20193055.455 3         0.000       96344.260          19.000  
  19214124.799 3         0.000       96318.981          20.000  
  21063270.618 5         0.000       98701.298          35.000  
  23200200.290 6         0.000       99610.983          37.000  
  22132438.095 4         0.000       93858.752          27.000  
 15 01 30 12 27 18.3730840  0  8G03G07G09G10G16G20G23G30             0.001783578
  25252838.123 3         0.000       99904.003          23.000  
  21014842.004 6         0.000       95646.993          37.000  
  21061962.420 3         0.000       98702.683          22.000  
  20192941.228 3         0.000       96348.930          19.000  
  19214016.330 3         0.000       96318.591          21.000  
  21063618.590 5         0.000       98701.349          35.000  
  23200721.290 6         0.000       99610.254          37.000  
  22131863.715 4         0.000       93861.492          26.000  
 15 01 30 12 27 19.3730837  0  8G03G07G09G10G16G20G23G30             0.001845076
  25253404.768 3         0.000       99902.330          23.000  
  21014607.738 6         0.000       95648.604          37.000  
  21062302.323 3         0.000       98700.559          22.000  
  20192845.677 3         0.000       96341.930          20.000  
  19213903.749 3         0.000       96317.811          21.000  
  21063965.241 5         0.000       98700.518          35.000  
  23201240.965 6         0.000       99610.337          37.000  
  22131295.163 4         0.000       93861.738          27.000  
 15 01 30 12 27 20.3730833  0  8G03G07G09G10G16G20G23G30             0.001906570
  25253972.565 3         0.000       99899.199          23.000  
  21014374.515 6         0.000       95647.978          37.000  
  21062659.618 3         0.000       98703.935          22.000  
  20192737.000 3         0.000       96342.279          20.000  
  19213793.884 3         0.000       96314.311          21.000  
  21064312.964 5         0.000       98699.748          35.000  
  23201761.634 6         0.000       99608.684          37.000  
  22130717.438 4         0.000       93861.564          27.000  
 15 01 30 12 27 21.3730830  0  8G03G07G09G10G16G20G23G30             0.001968065
  25254554.958 3         0.000       99901.827          23.000  
  21014141.047 6         0.000       95648.009          37.000  
  21062993.666 3         0.000       98698.342          22.000  
  20192645.420 3         0.000       96343.049          20.000  
  19213696.476 3         0.000       96313.551          21.000  
  21064660.401 5         0.000       98700.107          35.000  
  23202281.975 6         0.000       99608.930          38.000  
  22130144.387 4         0.000       93860.763          27.000  
 15 01 30 12 27 22.3730826  0  8G03G07G09G10G16G20G23G30             0.002029559
  25255126.043 3         0.000       99903.777          23.000  
  21013907.964 6         0.000       95648.194          36.000  
  21063351.398 3         0.000       98701.831          22.000  
  20192544.001 3         0.000       96346.005          20.000  
  19213586.385 3         0.000       96319.042          21.000  
  21065008.194 5         0.000       98700.620          35.000  
  23202802.587 6         0.000       99608.694          38.000  
  22129570.450 4         0.000       93861.697          27.000  
 15 01 30 12 27 23.3730823  0  8G03G07G09G10G16G20G23G30             0.002091052
  25255698.721 3         0.000       99897.916          23.000  
  21013675.086 6         0.000       95646.685          36.000  
  21063710.058 3         0.000       98692.122          22.000  
  20192429.586 3         0.000       96342.392          20.000  
  19213482.631 3         0.000       96315.809          21.000  
  21065356.175 5         0.000       98698.311          35.000  
  23203323.339 6         0.000       99606.518          38.000  
  22128997.210 4         0.000       93858.936          27.000  
 15 01 30 12 27 24.3730819  0  8G03G07G09G10G16G20G23G30             0.002152545
  25256277.733 3         0.000       99898.265          23.000  
  21013442.076 6         0.000       95647.845          36.000  
  21064060.882 3         0.000       98701.236          22.000  
  20192337.227 3         0.000       96346.847          21.000  
  19213377.377 3         0.000       96318.940          21.000  
  21065703.897 5         0.000       98698.660          35.000  
  23203843.834 6         0.000       99606.508          38.000  
  22128424.142 4         0.000       93858.474          27.000  
 15 01 30 12 27 25.3730815  0  8G03G07G09G10G16G20G23G30             0.002214038
  25256853.500 4         0.000       99893.216          24.000  
  21013209.376 6         0.000       95649.313          37.000  
  21064411.026 3         0.000       98697.172          22.000  
  20192233.944 3         0.000       96333.791          21.000  
  19213262.245 3         0.000       96314.126          20.000  
  21066051.837 5         0.000       98699.768          35.000  
  23204364.526 6         0.000       99607.401          38.000  
  22127852.258 4         0.000       93860.907          27.000  
 15 01 30 12 27 26.3730813  0  8G03G07G09G10G16G20G23G30             0.002275532
  25257433.894 4         0.000       99902.022          24.000  
  21012976.543 6         0.000       95649.436          37.000  
  21064750.208 3         0.000       98699.111          23.000  
  20192137.953 3         0.000       96341.335          20.000  
  19213170.686 3         0.000       96314.639          20.000  
  21066399.572 5         0.000       98700.507          35.000  
  23204884.992 6         0.000       99607.596          38.000  
  22127279.954 4         0.000       93860.127          28.000  
 15 01 30 12 27 27.3730809  0  8G03G07G09G10G16G20G23G30             0.002337022
  25258005.362 3         0.000       99897.906          23.000  
  21012744.808 6         0.000       95649.179          37.000  
  21065105.631 3         0.000       98694.359          23.000  
  20192052.793 3         0.000       96344.876          21.000  
  19213068.303 3         0.000       96317.862          20.000  
  21066748.359 5         0.000       98699.686          35.000  
  23205406.448 6         0.000       99605.769          38.000  
  22126708.056 4         0.000       93857.007          28.000  
 15 01 30 12 27 28.3730805  0  8G03G07G09G10G16G20G23G30             0.002398513
  25258577.048 4         0.000       99897.106          24.000  
  21012512.701 6         0.000       95647.044          37.000  
  21065451.768 3         0.000       98703.289          23.000  
  20191949.115 3         0.000       96344.024          21.000  
  19212961.956 3         0.000       96317.462          20.000  
  21067096.707 5         0.000       98698.003          34.000  
  23205927.416 6         0.000       99605.348          38.000  
  22126135.602 4         0.000       93856.453          27.000  
 15 01 30 12 27 29.3730803  0  8G03G07G09G10G16G20G23G30             0.002460005
  25259157.746 4         0.000       99896.705          24.000  
  21012280.224 6         0.000       95649.138          37.000  
  21065807.185 3         0.000       98691.568          23.000  
  20191844.004 3         0.000       96341.520          21.000  
  19212868.012 3         0.000       96318.006          20.000  
  21067444.624 5         0.000       98699.276          34.000  
  23206447.897 6         0.000       99605.318          38.000  
  22125562.893 4         0.000       93859.501          28.000  
 15 01 30 12 27 30.3730799  0  8G03G07G09G10G16G20G23G30             0.002521495
  25259739.559 4         0.000       99894.026          24.000  
  21012048.336 6         0.000       95646.408          37.000  
  21066148.980 3         0.000       98693.600          23.000  
  20191733.332 3         0.000       96340.380          21.000  
  19212771.597 3         0.000       96320.294          20.000  
  21067793.043 5         0.000       98695.540          34.000  
  23206968.833 6         0.000       99601.643          38.000  
  22124990.077 4         0.000       93856.442          28.000  
 15 01 30 12 27 31.3730795  0  8G03G07G09G10G16G20G23G30             0.002582986
  25260313.212 4         0.000       99895.884          24.000  
  21011815.920 6         0.000       95648.686          37.000  
  21066494.994 3         0.000       98702.755          22.000  
  20191633.598 3         0.000       96337.260          20.000  
  19212653.348 3         0.000       96313.171          20.000  
  21068140.925 5         0.000       98697.633          34.000  
  23207489.164 6         0.000       99603.593          38.000  
  22124416.754 4         0.000       93858.700          28.000  
 15 01 30 12 27 32.3730792  0  8G03G07G09G10G16G20G23G30             0.002644479
  25260882.047 4         0.000       99898.009          24.000  
  21011583.262 6         0.000       95650.318          37.000  
  21066846.063 3         0.000       98704.315          22.000  
  20191537.208 3         0.000       96341.612          20.000  
  19212551.113 3         0.000       96318.231          20.000  
  21068488.533 5         0.000       98697.479          34.000  
  23208009.160 6         0.000       99604.548          37.000  
  22123843.545 4         0.000       93859.121          28.000  
 15 01 30 12 27 33.3730789  0  8G03G07G09G10G16G20G23G30             0.002705968
  25261469.508 4         0.000       99893.842          24.000  
  21011351.574 6         0.000       95646.110          37.000  
  21067184.109 3         0.000       98692.543          22.000  
  20191438.493 3         0.000       96331.194          20.000  
  19212451.595 3         0.000       96318.970          20.000  
  21068837.139 5         0.000       98696.833          34.000  
  23208530.058 6         0.000       99601.192          37.000  
  22123271.349 4         0.000       93855.755          28.000  
 15 01 30 12 27 34.3730785  0  8G03G07G09G10G16G20G23G30             0.002767461
  25262032.771 4         0.000       99895.781          24.000  
  21011119.212 6         0.000       95653.480          37.000  
  21067521.881 3         0.000       98695.786          22.000  
  20191320.360 3         0.000       96342.228          20.000  
  19212347.754 3         0.000       96316.825          20.000  
  21069185.016 5         0.000       98701.277          34.000  
  23209050.173 6         0.000       99606.785          37.000  
  22122698.395 4         0.000       93863.360          28.000  
 15 01 30 12 27 35.3730781  0  8G03G07G09G10G16G20G23G30             0.002828952
  25262608.752 4         0.000       99902.012          24.000  
  21010888.362 6         0.000       95656.158          37.000  
  21067868.977 3         0.000       98705.116          22.000  
  20191225.600 3         0.000       96351.486          20.000  
  19212243.605 3         0.000       96323.661          21.000  
  21069534.360 5         0.000       98704.582          34.000  
  23209571.683 6         0.000       99608.284          37.000  
  22122126.856 4         0.000       93863.473          28.000  
 15 01 30 12 27 36.3730778  0  8G03G07G09G10G16G20G23G30             0.002890445
  25263185.178 4         0.000       99900.369          24.000  
  21010656.946 6         0.000       95654.147          37.000  
  21068219.400 3         0.000       98700.292          22.000  
  20191117.379 3         0.000       96344.096          20.000  
  19212126.659 3         0.000       96324.698          21.000  
  21069883.094 5         0.000       98701.267          34.000  
  23210092.527 6         0.000       99606.642          37.000  
  22121554.592 4         0.000       93862.765          28.000  
 15 01 30 12 27 37.3730774  0  8G03G07G09G10G16G20G23G30             0.002951938
  25263765.367 4         0.000       99894.981          24.000  
  21010425.376 6         0.000       95655.461          37.000  
  21068573.942 3         0.000       98696.063          22.000  
  20191022.437 3         0.000       96341.458          20.000  
  19212019.869 3         0.000       96322.049          21.000  
  21070231.690 5         0.000       98703.802          34.000  
  23210613.160 6         0.000       99607.319          37.000  
  22120982.216 4         0.000       93866.111          28.000  
 15 01 30 12 27 38.3730771  0  8G03G07G09G10G16G20G23G30             0.003013432
  25264345.449 4         0.000       99902.976          24.000  
  21010193.706 6         0.000       95656.056          37.000  
  21068922.041 3         0.000       98695.570          22.000  
  20190919.885 3         0.000       96347.986          20.000  
  19211918.922 3         0.000       96324.184          21.000  
  21070580.115 5         0.000       98702.796          34.000  
  23211133.612 6         0.000       99607.227          37.000  
  22120409.640 4         0.000       93864.027          29.000  
 15 01 30 12 27 39.3730767  0  8G03G07G09G10G16G20G23G30             0.003074924
  25264922.041 3         0.000       99901.570          23.000  
  21009962.693 6         0.000       95655.614          37.000  
  21069276.045 3         0.000       98710.094          22.000  
  20190817.216 3         0.000       96358.804          20.000  
  19211817.684 3         0.000       96322.994          21.000  
  21070929.101 5         0.000       98703.340          34.000  
  23211654.614 6         0.000       99607.668          37.000  
  22119837.777 4         0.000       93863.781          29.000  
 15 01 30 12 27 40.3730764  0  8G03G07G09G10G16G20G23G30             0.003136419
  25265496.146 3         0.000       99896.818          23.000  
  21009730.791 6         0.000       95654.783          37.000  
  21069619.691 3         0.000       98704.038          22.000  
  20190719.616 3         0.000       96352.687          20.000  
  19211711.655 3         0.000       96322.450          21.000  
  21071277.161 5         0.000       98702.026          35.000  
  23212174.631 6         0.000       99608.109          37.000  
  22119265.143 4         0.000       93863.042          29.000  
 15 01 30 12 27 41.3730760  0  8G03G07G09G10G16G20G23G30             0.003197910
  25266072.588 3         0.000       99896.767          23.000  
  21009500.271 6         0.000       95658.191          37.000  
  21069959.842 3         0.000       98697.695          22.000  
  20190618.364 3         0.000       96349.269          20.000  
  19211606.878 3         0.000       96335.957          21.000  
  21071626.554 5         0.000       98705.413          35.000  
  23212695.894 6         0.000       99608.602          37.000  
  22118693.785 4         0.000       93863.976          29.000  
 15 01 30 12 27 42.3730757  0  8G03G07G09G10G16G20G23G30             0.003259400
  25266645.909 3         0.000       99902.443          23.000  
  21009270.315 6         0.000       95658.088          37.000  
  21070307.936 3         0.000       98698.670          22.000  
  20190519.104 3         0.000       96349.218          20.000  
  19211504.844 3         0.000       96335.526          21.000  
  21071976.485 5         0.000       98705.957          35.000  
  23213217.655 6         0.000       99608.653          37.000  
  22118122.780 5         0.000       93864.561          30.000  
 15 01 30 12 27 43.3730753  0  8G03G07G09G10G16G20G23G30             0.003320893
  25267220.959 3         0.000       99908.252          23.000  
  21009039.462 6         0.000       95659.104          37.000  
  21070652.653 3         0.000       98705.834          22.000  
  20190415.892 3         0.000       96351.691          20.000  
  19211398.752 3         0.000       96324.359          20.000  
  21072325.522 5         0.000       98704.202          35.000  
  23213738.439 6         0.000       99608.274          37.000  
  22117550.619 5         0.000       93865.372          30.000  
 15 01 30 12 27 44.3730750  0  8G03G07G09G10G16G20G23G30             0.003382384
  25267812.454 3         0.000       99894.919          23.000  
  21008809.194 6         0.000       95657.708          37.000  
  21070995.090 3         0.000       98700.723          22.000  
  20190317.466 3         0.000       96340.401          19.000  
  19211292.370 3         0.000       96322.573          20.000  
  21072675.049 5         0.000       98704.623          35.000  
  23214259.726 6         0.000       99607.134          37.000  
  22116979.183 5         0.000       93864.930          30.000  
 15 01 30 12 27 45.3730747  0  8G03G07G09G10G16G20G23G30             0.003443875
  25268384.700 3         0.000       99901.478          23.000  
  21008578.940 6         0.000       95657.780          37.000  
  21071345.049 3         0.000       98695.006          22.000  
  20190222.113 2         0.000       96333.555          15.000  
  19211200.890 3         0.000       96327.140          21.000  
  21073024.532 5         0.000       98705.064          35.000  
  23214780.924 6         0.000       99606.857          37.000  
  22116407.765 5         0.000       93866.357          30.000  
 15 01 30 12 27 46.3730742  0  8G03G07G09G10G16G20G23G30             0.003505366
  25268957.759 3         0.000       99899.333          23.000  
  21008348.614 6         0.000       95656.897          37.000  
  21071695.199 3         0.000       98708.913          22.000  
  20190112.642 2         0.000       96331.728          17.000  
  19211080.094 3         0.000       96320.161          21.000  
  21073373.891 5         0.000       98703.463          35.000  
  23215301.924 6         0.000       99606.046          37.000  
  22115836.038 5         0.000       93863.524          30.000  
 15 01 30 12 27 47.3730740  0  8G03G07G09G10G16G20G23G30             0.003566855
  25269539.622 3         0.000       99890.116          23.000  
  21008118.382 6         0.000       95654.003          37.000  
  21072034.327 3         0.000       98699.799          22.000  
  20190010.680 2         0.000       96343.624          17.000  
  19210988.899 3         0.000       96318.591          21.000  
  21073723.273 5         0.000       98699.101          35.000  
  23215822.903 6         0.000       99600.412          37.000  
  22115264.415 4         0.000       93859.665          29.000  
 15 01 30 12 27 48.3730736  0  8G03G07G09G10G16G20G23G30             0.003628342
  25270124.124 3         0.000       99900.010          23.000  
  21007888.688 6         0.000       95657.031          37.000  
  21072387.386 3         0.000       98689.689          22.000  
  20189920.138 2         0.000       96348.489          16.000  
  19210882.181 3         0.000       96325.252          21.000  
  21074073.191 5         0.000       98702.293          35.000  
  23216344.382 6         0.000       99604.661          37.000  
  22114693.286 4         0.000       93861.133          29.000  
 15 01 30 12 27 49.3730732  0  8G03G07G09G10G16G20G23G30             0.003689830
  25270694.384 3         0.000       99896.952          23.000  
  21007659.173 6         0.000       95658.232          37.000  
  21072738.261 2         0.000       98683.603          15.000  
  20189827.725 2         0.000       96351.229          16.000  
  19210770.415 3         0.000       96328.557          21.000  
  21074423.223 5         0.000       98702.776          35.000  
  23216865.896 6         0.000       99603.665          37.000  
  22114122.339 4         0.000       93862.672          29.000  
 15 01 30 12 27 50.3730729  0  8G03G07G09G10G16G20G23G30             0.003751320
  25271269.365 3         0.000       99899.559          23.000  
  21007429.268 6         0.000       95660.387          37.000  
  21073069.359 2         0.000       98695.273          16.000  
  20189725.656 2         0.000       96359.102          16.000  
  19210675.484 3         0.000       96324.164          21.000  
  21074772.788 5         0.000       98704.346          34.000  
  23217386.955 6         0.000       99606.149          37.000  
  22113550.791 4         0.000       93864.099          29.000  
 15 01 30 12 27 51.3730726  0  8G03G07G09G10G16G20G23G30             0.003812809
  25271840.957 3         0.000       99896.408          23.000  
  21007199.862 6         0.000       95661.413          37.000  
  21073416.706 2         0.000       98700.795          16.000  
  20189630.989 2         0.000       96367.939          16.000  
  19210572.475 3         0.000       96325.703          21.000  
  21075122.828 5         0.000       98704.243          34.000  
  23217908.416 6         0.000       99605.728          37.000  
  22112979.666 4         0.000       93864.130          29.000  
 15 01 30 12 27 52.3730723  0  8G03G07G09G10G16G20G23G30             0.003874296
  25272417.637 3         0.000       99892.836          23.000  
  21006971.101 6         0.000       95659.545          37.000  
  21073762.593 2         0.000       98701.647          16.000  
  20189540.673 2         0.000       96347.473          16.000  
  19210469.089 3         0.000       96322.019          21.000  
  21075473.493 5         0.000       98704.726          34.000  
  23218430.438 6         0.000       99603.850          37.000  
  22112409.174 4         0.000       93864.109          29.000  
 15 01 30 12 27 53.3730719  0  8G03G07G09G10G16G20G23G30             0.003935784
  25272994.242 3         0.000       99896.141          23.000  
  21006741.901 6         0.000       95657.883          37.000  
  21074111.217 2         0.000       98706.727          16.000  
  20189421.789 2         0.000       96341.222          16.000  
  19210376.153 3         0.000       96327.140          21.000  
  21075823.673 5         0.000       98703.299          34.000  
  23218951.931 6         0.000       99603.542          37.000  
  22111838.167 4         0.000       93863.729          28.000  
 15 01 30 12 27 54.3730715  0  8G03G07G09G10G16G20G23G30             0.003997271
  25273576.403 3         0.000       99896.592          23.000  
  21006512.849 6         0.000       95658.827          37.000  
  21074459.147 2         0.000       98703.186          16.000  
  20189316.256 2         0.000       96347.637          16.000  
  19210265.648 3         0.000       96327.304          21.000  
  21076173.945 5         0.000       98703.730          35.000  
  23219473.476 6         0.000       99603.409          37.000  
  22111267.346 4         0.000       93863.114          28.000  
 15 01 30 12 27 55.3730713  0  8G03G07G09G10G16G20G23G30             0.004058758
  25274152.057 3         0.000       99896.828          23.000  
  21006284.004 6         0.000       95660.213          37.000  
  21074820.303 2         0.000       98708.287          16.000  
  20189222.224 2         0.000       96352.697          16.000  
  19210168.928 3         0.000       96327.304          21.000  
  21076524.391 5         0.000       98703.812          35.000  
  23219995.141 6         0.000       99604.435          37.000  
  22110696.583 4         0.000       93863.565          28.000  
 15 01 30 12 27 56.3730709  0  8G03G07G09G10G16G20G23G30             0.004120245
  25274730.216 3         0.000       99894.663          23.000  
  21006055.374 6         0.000       95660.305          37.000  
  21075180.377 2         0.000       98702.724          17.000  
  20189133.234 2         0.000       96355.889          16.000  
  19210069.904 3         0.000       96329.193          21.000  
  21076875.032 5         0.000       98704.674          35.000  
  23220516.925 6         0.000       99603.778          37.000  
  22110126.094 4         0.000       93864.787          28.000  
 15 01 30 12 27 57.3730706  0  8G03G07G09G10G16G20G23G30             0.004181732
  25275316.465 4         0.000       99893.133          24.000  
  21005826.796 6         0.000       95660.408          37.000  
  21075526.160 2         0.000       98694.154          17.000  
  20189040.772 2         0.000       96350.552          17.000  
  19209974.511 3         0.000       96328.002          21.000  
  21077225.677 5         0.000       98704.089          35.000  
  23221038.668 6         0.000       99602.782          38.000  
  22109555.598 4         0.000       93864.592          28.000  
 15 01 30 12 27 58.3730702  0  8G03G07G09G10G16G20G23G30             0.004243220
  25275891.563 4         0.000       99892.867          24.000  
  21005597.970 6         0.000       95661.085          37.000  
  21075882.724 3         0.000       98695.909          20.000  
  20188933.946 2         0.000       96345.831          17.000  
  19209864.718 3         0.000       96339.570          21.000  
  21077576.020 5         0.000       98704.572          35.000  
  23221560.087 6         0.000       99603.809          38.000  
  22108984.805 4         0.000       93864.663          28.000  
 15 01 30 12 27 59.3730699  0  8G03G07G09G10G16G20G23G30             0.004304706
  25276464.579 4         0.000       99895.258          24.000  
  21005369.844 6         0.000       95662.430          37.000  
  21076243.186 3         0.000       98699.676          22.000  
  20188842.115 2         0.000       96346.631          17.000  
  19209757.391 3         0.000       96324.287          21.000  
  21077926.969 5         0.000       98704.633          35.000  
  23222082.068 6         0.000       99602.977          38.000  
  22108414.607 4         0.000       93864.571          28.000  
 15 01 30 12 28  0.3743082  0  8G03G07G09G10G16G20G23G30             0.004366267
  25277040.132 4         0.000       99895.258          24.000  
  21005141.818 6         0.000       95661.670          37.000  
  21076593.989 3         0.000       98701.144          22.000  
  20188760.955 2         0.000       96350.603          17.000  
  19209665.657 3         0.000       96327.500          21.000  
  21078278.719 5         0.000       98705.311          35.000  
  23222604.983 6         0.000       99602.485          38.000  
  22107844.118 4         0.000       93864.961          28.000  
 15 01 30 12 28  1.3743101  0  8G03G07G09G10G16G20G23G30             0.004427754
  25277618.300 4         0.000       99893.790          25.000  
  21004913.484 6         0.000       95661.804          37.000  
  21076951.166 3         0.000       98702.858          23.000  
  20188668.424 3         0.000       96350.952          19.000  
  19209562.655 3         0.000       96330.671          21.000  
  21078629.377 5         0.000       98704.038          35.000  
  23223126.615 6         0.000       99601.766          38.000  
  22107273.677 4         0.000       93865.033          28.000  
 15 01 30 12 28  2.3730689  0  8G03G07G09G10G16G20G23G30             0.004489162
  25278194.836 4         0.000       99889.705          25.000  
  21004685.956 6         0.000       95660.839          37.000  
  21077287.268 4         0.000       98696.740          24.000  
  20188581.532 3         0.000       96345.184          21.000  
  19209460.494 3         0.000       96334.038          21.000  
  21078980.092 5         0.000       98702.026          35.000  
  23223648.036 6         0.000       99600.104          38.000  
  22106704.334 4         0.000       93862.734          29.000  
 15 01 30 12 28  3.3743139  0  8G03G07G09G10G16G20G23G30             0.004550727
  25278767.977 4         0.000       99893.760          25.000  
  21004456.710 6         0.000       95662.871          37.000  
  21077639.332 4         0.000       98701.113          24.000  
  20188473.922 3         0.000       96346.467          21.000  
  19209360.022 3         0.000       96329.111          21.000  
  21079330.433 5         0.000       98702.457          35.000  
  23224169.520 6         0.000       99601.458          38.000  
  22106132.482 4         0.000       93865.454          29.000  
 15 01 30 12 28  4.3743158  0  8G03G07G09G10G16G20G23G30             0.004612214
  25279344.118 4         0.000       99893.411          25.000  
  21004228.382 6         0.000       95662.799          37.000  
  21077979.566 4         0.000       98696.956          24.000  
  20188367.605 3         0.000       96354.452          21.000  
  19209261.173 3         0.000       96329.409          21.000  
  21079680.939 5         0.000       98703.289          35.000  
  23224690.878 6         0.000       99601.397          38.000  
  22105561.907 4         0.000       93865.382          29.000  
 15 01 30 12 28  5.3730678  0  8G03G07G09G10G16G20G23G30             0.004673623
  25279924.352 4         0.000       99893.390          26.000  
  21004000.903 6         0.000       95664.441          38.000  
  21078330.654 4         0.000       98698.003          24.000  
  20188274.393 3         0.000       96361.698          21.000  
  19209155.641 3         0.000       96332.570          21.000  
  21080031.507 5         0.000       98706.214          35.000  
  23225212.025 6         0.000       99602.587          39.000  
  22104992.565 4         0.000       93867.291          29.000  
 15 01 30 12 28  6.3730676  0  8G03G07G09G10G16G20G23G30             0.004735111
  25280502.180 4         0.000       99894.468          26.000  
  21003772.623 6         0.000       95663.795          38.000  
  21078677.917 4         0.000       98702.776          24.000  
  20188170.969 3         0.000       96350.080          20.000  
  19209059.040 3         0.000       96327.366          21.000  
  21080381.914 5         0.000       98704.880          35.000  
  23225733.205 6         0.000       99602.187          38.000  
  22104421.910 4         0.000       93865.279          29.000  
 15 01 30 12 28  7.3743216  0  8G03G07G09G10G16G20G23G30             0.004796675
  25281080.808 4         0.000       99890.095          26.000  
  21003544.412 6         0.000       95663.651          38.000  
  21079035.568 4         0.000       98702.232          24.000  
  20188068.546 3         0.000       96357.100          20.000  
  19208959.810 3         0.000       96333.319          21.000  
  21080733.112 5         0.000       98705.013          35.000  
  23226255.344 6         0.000       99602.454          38.000  
  22103850.938 4         0.000       93866.008          29.000  
 15 01 30 12 28  8.3743235  0  8G03G07G09G10G16G20G23G30             0.004858162
  25281657.689 4         0.000       99892.548          26.000  
  21003316.569 6         0.000       95664.749          38.000  
  21079394.160 4         0.000       98697.746          24.000  
  20187969.610 3         0.000       96350.336          20.000  
  19208849.130 3         0.000       96336.070          21.000  
  21081083.919 5         0.000       98703.946          35.000  
  23226776.793 6         0.000       99601.479          39.000  
  22103280.722 4         0.000       93864.694          29.000  
 15 01 30 12 28  9.3730666  0  8G03G07G09G10G16G20G23G30             0.004919570
  25282235.427 4         0.000       99892.169          26.000  
  21003089.452 6         0.000       95664.616          38.000  
  21079740.312 4         0.000       98698.537          24.000  
  20187879.490 3         0.000       96351.712          20.000  
  19208763.896 3         0.000       96333.637          21.000  
  21081434.737 5         0.000       98705.249          35.000  
  23227297.940 6         0.000       99600.268          39.000  
  22102711.576 4         0.000       93866.963          29.000  
 15 01 30 12 28 10.3730662  0  8G03G07G09G10G16G20G23G30             0.004981054
  25282806.433 4         0.000       99893.267          26.000  
  21002862.345 6         0.000       95664.246          38.000  
  21080087.012 4         0.000       98701.205          24.000  
  20187780.127 3         0.000       96343.850          20.000  
  19208667.779 3         0.000       96335.680          21.000  
  21081786.214 5         0.000       98704.377          35.000  
  23227819.942 6         0.000       99600.206          38.000  
  22102142.072 4         0.000       93863.391          29.000  
 15 01 30 12 28 11.3730658  0  8G03G07G09G10G16G20G23G30             0.005042540
  25283381.311 4         0.000       99890.845          26.000  
  21002634.795 6         0.000       95665.960          38.000  
  21080439.220 4         0.000       98693.620          24.000  
  20187686.324 3         0.000       96354.011          20.000  
  19208557.626 3         0.000       96332.590          21.000  
  21082137.191 5         0.000       98704.797          35.000  
  23228341.407 6         0.000       99600.914          38.000  
  22101572.109 4         0.000       93865.290          29.000  
 15 01 30 12 28 12.3743313  0  8G03G07G09G10G16G20G23G30             0.005104102
  25283968.558 4         0.000       99887.437          26.000  
  21002407.600 6         0.000       95664.431          38.000  
  21080788.972 4         0.000       98699.655          24.000  
  20187594.726 3         0.000       96348.581          20.000  
  19208461.805 3         0.000       96336.552          21.000  
  21082489.226 5         0.000       98703.515          35.000  
  23228864.092 6         0.000       99599.190          38.000  
  22101002.019 4         0.000       93864.530          29.000  
 15 01 30 12 28 13.3730652  0  8G03G07G09G10G16G20G23G30             0.005165508
  25284537.387 4         0.000       99890.321          26.000  
  21002180.953 6         0.000       95664.092          38.000  
  21081154.708 4         0.000       98698.496          24.000  
  20187503.147 3         0.000       96352.625          20.000  
  19208351.030 3         0.000       96332.323          21.000  
  21082840.356 5         0.000       98704.736          35.000  
  23229385.342 6         0.000       99599.190          38.000  
  22100433.318 4         0.000       93864.746          29.000  
 15 01 30 12 28 14.3730649  0  8G03G07G09G10G16G20G23G30             0.005226992
  25285109.842 4         0.000       99890.886          26.000  
  21001953.935 6         0.000       95665.365          38.000  
  21081509.026 4         0.000       98698.639          24.000  
  20187416.435 3         0.000       96344.958          20.000  
  19208257.269 3         0.000       96334.961          21.000  
  21083191.765 5         0.000       98703.607          35.000  
  23229907.045 6         0.000       99599.436          38.000  
  22099863.722 4         0.000       93863.996          29.000  
 15 01 30 12 28 15.3730645  0  8G03G07G09G10G16G20G23G30             0.005288476
  25285692.043 4         0.000       99892.702          26.000  
  21001727.227 6         0.000       95667.110          38.000  
  21081851.431 4         0.000       98696.412          25.000  
  20187316.374 3         0.000       96352.718          21.000  
  19208166.526 3         0.000       96335.772          21.000  
  21083543.532 5         0.000       98705.978          35.000  
  23230428.927 6         0.000       99600.401          38.000  
  22099294.352 4         0.000       93866.973          29.000  
 15 01 30 12 28 16.3743389  0  8G03G07G09G10G16G20G23G30             0.005350038
  25286262.551 4         0.000       99893.688          26.000  
  21001500.488 6         0.000       95666.864          38.000  
  21082211.408 4         0.000       98700.405          25.000  
  20187212.107 3         0.000       96352.112          21.000  
  19208064.563 3         0.000       96327.530          21.000  
  21083895.794 6         0.000       98706.337          36.000  
  23230951.695 6         0.000       99600.935          38.000  
  22098724.458 4         0.000       93866.141          29.000  
 15 01 30 12 28 17.3730639  0  8G03G07G09G10G16G20G23G30             0.005411443
  25286844.258 4         0.000       99890.342          26.000  
  21001274.450 6         0.000       95667.387          38.000  
  21082559.060 4         0.000       98698.475          25.000  
  20187115.366 3         0.000       96347.452          21.000  
  19207971.608 3         0.000       96335.844          21.000  
  21084247.358 6         0.000       98705.793          36.000  
  23231473.163 6         0.000       99599.406          39.000  
  22098156.151 4         0.000       93866.152          29.000  
 15 01 30 12 28 18.3730636  0  8G03G07G09G10G16G20G23G30             0.005472924
  25287422.488 4         0.000       99889.962          26.000  
  21001048.840 6         0.000       95667.264          38.000  
  21082911.526 4         0.000       98698.608          25.000  
  20187016.832 3         0.000       96347.586          21.000  
  19207870.474 3         0.000       96329.152          21.000  
  21084600.009 6         0.000       98705.855          36.000  
  23231995.924 6         0.000       99598.893          38.000  
  22097587.756 4         0.000       93864.202          29.000  
 15 01 30 12 28 19.3730633  0  8G03G07G09G10G16G20G23G30             0.005534407
  25288003.403 4         0.000       99888.340          26.000  
  21000822.517 6         0.000       95667.038          38.000  
  21083266.127 4         0.000       98698.937          26.000  
  20186923.528 3         0.000       96349.936          21.000  
  19207781.759 3         0.000       96337.969          21.000  
  21084951.919 6         0.000       98704.428          36.000  
  23232517.892 6         0.000       99598.739          38.000  
  22097018.605 4         0.000       93864.561          29.000  
 15 01 30 12 28 20.3730630  0  8G03G07G09G10G16G20G23G30             0.005595890
  25288585.426 4         0.000       99888.515          26.000  
  21000596.313 6         0.000       95667.479          38.000  
  21083621.514 4         0.000       98698.608          26.000  
  20186827.292 3         0.000       96353.877          21.000  
  19207684.895 3         0.000       96334.510          21.000  
  21085303.912 6         0.000       98706.050          36.000  
  23233039.877 6         0.000       99598.964          38.000  
  22096449.501 4         0.000       93866.993          29.000  
 15 01 30 12 28 21.3730626  0  8G03G07G09G10G16G20G23G30             0.005657370
  25289168.263 4         0.000       99886.852          26.000  
  21000371.134 6         0.000       95667.120          37.000  
  21083969.888 4         0.000       98695.909          26.000  
  20186721.781 3         0.000       96348.766          21.000  
  19207585.038 3         0.000       96334.766          21.000  
  21085656.836 6         0.000       98704.890          36.000  
  23233562.790 6         0.000       99598.256          38.000  
  22095872.720 4         0.000       93865.649          28.000  
 15 01 30 12 28 22.3730623  0  8G03G07G09G10G16G20G23G30             0.005718851
  25289747.785 4         0.000       99889.654          26.000  
  21000145.671 6         0.000       95667.839          37.000  
  21084311.409 4         0.000       98696.361          26.000  
  20186627.576 3         0.000       96350.932          21.000  
  19207488.791 3         0.000       96335.536          21.000  
  21086009.447 6         0.000       98705.054          36.000  
  23234085.305 6         0.000       99597.969          38.000  
  22095303.477 4         0.000       93865.772          28.000  
 15 01 30 12 28 23.3730620  0  8G03G07G09G10G16G20G23G30             0.005780334
  25290319.863 4         0.000       99886.493          26.000  
  20999919.665 6         0.000       95667.520          37.000  
  21084656.671 4         0.000       98702.201          26.000  
  20186542.037 3         0.000       96353.415          20.000  
  19207388.943 3         0.000       96336.224          20.000  
  21086361.431 6         0.000       98704.110          36.000  
  23234607.172 6         0.000       99597.476          38.000  
  22094737.382 4         0.000       93867.270          28.000  
 15 01 30 12 28 24.3730616  0  7G03G07G09G16G20G23G30                0.005841816
  25290895.103 4         0.000       99891.019          26.000  
  20999693.993 6         0.000       95669.234          37.000  
  21085014.120 4         0.000       98699.604          26.000  
  19207282.222 3         0.000       96337.650          21.000  
  21086713.685 6         0.000       98704.951          36.000  
  23235129.292 6         0.000       99597.712          38.000  
  22094169.436 4         0.000       93866.306          28.000  
 15 01 30 12 28 25.3730612  0  8G03G07G09G10G16G20G23G30             0.005903296
  25291473.985 4         0.000       99889.757          26.000  
  20999468.927 6         0.000       95667.674          38.000  
  21085373.469 4         0.000       98700.025          26.000  
  20186345.162 1         0.000       96350.655           7.000  
  19207171.774 3         0.000       96340.391          20.000  
  21087066.514 6         0.000       98704.192          36.000  
  23235651.911 6         0.000       99596.049          38.000  
  22093602.503 4         0.000       93863.627          28.000  
 15 01 30 12 28 26.3730609  0  8G03G07G09G10G16G20G23G30             0.005964777
  25292053.595 4         0.000       99882.921          26.000  
  20999243.367 6         0.000       95666.381          38.000  
  21085717.230 4         0.000       98697.972          26.000  
  20186253.923 2         0.000       96348.027          14.000  
  19207074.933 3         0.000       96337.917          20.000  
  21087418.788 6         0.000       98702.981          36.000  
  23236173.907 6         0.000       99593.976          38.000  
  22093034.855 4         0.000       93865.618          28.000  
 15 01 30 12 28 27.3730606  0  8G03G07G09G10G16G20G23G30             0.006026258
  25292634.042 4         0.000       99887.047          26.000  
  20999017.686 6         0.000       95667.479          38.000  
  21086063.561 4         0.000       98697.243          26.000  
  20186163.120 3         0.000       96353.693          18.000  
  19206976.365 3         0.000       96333.001          20.000  
  21087770.869 6         0.000       98701.236          36.000  
  23236695.675 6         0.000       99594.397          39.000  
  22092466.760 4         0.000       93861.605          29.000  
 15 01 30 12 28 28.3730602  0  8G03G07G09G10G16G20G23G30             0.006087738
  25293208.219 4         0.000       99888.351          26.000  
  20998792.631 6         0.000       95668.762          38.000  
  21086422.065 4         0.000       98700.938          26.000  
  20186065.253 3         0.000       96350.367          18.000  
  19206878.690 3         0.000       96336.644          20.000  
  21088123.600 6         0.000       98705.444          36.000  
  23237217.973 6         0.000       99597.035          39.000  
  22091899.139 4         0.000       93865.023          29.000  
 15 01 30 12 28 29.3730600  0  8G03G07G09G10G16G20G23G30             0.006149217
  25293789.313 4         0.000       99887.334          26.000  
  20998568.177 6         0.000       95669.707          38.000  
  21086774.373 4         0.000       98699.922          25.000  
  20185971.158 3         0.000       96348.520          18.000  
  19206789.970 3         0.000       96342.700          20.000  
  21088476.842 6         0.000       98705.762          36.000  
  23237740.749 6         0.000       99596.306          38.000  
  22091331.563 4         0.000       93864.900          29.000  
 15 01 30 12 28 30.3730597  0  8G03G07G09G10G16G20G23G30             0.006210696
  25294361.446 4         0.000       99884.902          26.000  
  20998343.470 6         0.000       95666.432          38.000  
  21087114.133 4         0.000       98699.050          25.000  
  20185873.102 3         0.000       96341.879          18.000  
  19206695.683 3         0.000       96341.007          20.000  
  21088829.779 6         0.000       98702.652          36.000  
  23238263.215 6         0.000       99592.447          38.000  
  22090764.162 4         0.000       93863.298          29.000  
 15 01 30 12 28 31.3730593  0  8G03G07G09G10G16G20G23G30             0.006272174
  25294937.295 4         0.000       99881.197          26.000  
  20998118.522 6         0.000       95665.837          38.000  
  21087458.657 4         0.000       98691.475          25.000  
  20185776.149 3         0.000       96343.254          18.000  
  19206601.853 3         0.000       96334.705          20.000  
  21089182.420 6         0.000       98700.897          36.000  
  23238785.349 6         0.000       99591.041          38.000  
  22090196.114 4         0.000       93862.405          29.000  
 15 01 30 12 28 32.3730590  0  8G03G07G09G10G16G20G23G30             0.006333654
  25295518.692 4         0.000       99884.974          26.000  
  20997893.243 6         0.000       95668.557          38.000  
  21087816.830 4         0.000       98696.638          25.000  
  20185685.681 2         0.000       96349.977          17.000  
  19206499.606 3         0.000       96328.516          20.000  
  21089534.676 6         0.000       98702.919          36.000  
  23239307.069 6         0.000       99593.494          38.000  
  22089627.811 4         0.000       93865.659          29.000  
 15 01 30 12 28 33.3730587  0  8G03G07G09G10G16G20G23G30             0.006395134
  25296095.675 4         0.000       99883.342          26.000  
  20997668.275 6         0.000       95667.582          38.000  
  21088167.512 4         0.000       98702.170          25.000  
  20185586.051 2         0.000       96346.344          17.000  
  19206399.139 3         0.000       96334.304          20.000  
  21089887.218 6         0.000       98701.975          36.000  
  23239828.987 6         0.000       99592.786          38.000  
  22089059.953 4         0.000       93863.052          29.000  
 15 01 30 12 28 34.3730584  0  8G03G07G09G10G16G20G23G30             0.006456613
  25296671.096 4         0.000       99887.222          26.000  
  20997443.916 6         0.000       95672.468          38.000  
  21088524.984 4         0.000       98701.636          25.000  
  20185503.544 2         0.000       96351.640          17.000  
  19206303.945 3         0.000       96331.708          20.000  
  21090240.304 6         0.000       98706.604          36.000  
  23240351.371 6         0.000       99596.983          38.000  
  22088492.314 4         0.000       93867.106          29.000  
 15 01 30 12 28 35.3730580  0  8G03G07G09G10G16G20G23G30             0.006518096
  25297250.564 4         0.000       99889.387          26.000  
  20997219.369 6         0.000       95677.168          38.000  
  21088874.495 4         0.000       98702.899          25.000  
  20185405.179 2         0.000       96358.424          17.000  
  19206198.809 3         0.000       96340.668          20.000  
  21090593.176 6         0.000       98711.602          36.000  
  23240873.459 6         0.000       99600.719          38.000  
  22087924.364 5         0.000       93873.511          30.000  
 15 01 30 12 28 36.3730576  0  8G03G07G09G10G16G20G23G30             0.006579579
  25297819.777 4         0.000       99891.245          26.000  
  20996995.091 6         0.000       95674.797          38.000  
  21089222.147 4         0.000       98703.494          25.000  
  20185308.646 2         0.000       96363.669          17.000  
  19206104.597 3         0.000       96345.009          20.000  
  21090946.258 6         0.000       98708.657          36.000  
  23241395.749 6         0.000       99598.554          38.000  
  22087356.609 4         0.000       93870.288          29.000  
 15 01 30 12 28 37.3730573  0  8G03G07G09G10G16G20G23G30             0.006641058
  25298395.748 4         0.000       99887.899          26.000  
  20996771.661 6         0.000       95676.224          38.000  
  21089581.332 4         0.000       98702.478          25.000  
  20185213.347 2         0.000       96356.105          17.000  
  19206001.952 3         0.000       96336.727          20.000  
  21091300.159 6         0.000       98710.145          36.000  
  23241918.787 6         0.000       99597.733          38.000  
  22086789.585 4         0.000       93869.703          29.000  
 15 01 30 12 28 38.3730570  0  8G03G07G09G10G16G20G23G30             0.006702538
  25298972.681 4         0.000       99890.372          26.000  
  20996548.084 6         0.000       95675.608          38.000  
  21089930.289 4         0.000       98700.281          25.000  
  20185125.235 2         0.000       96352.800          17.000  
  19205906.092 3         0.000       96332.806          20.000  
  21091653.902 6         0.000       98709.919          36.000  
  23242441.656 6         0.000       99598.164          38.000  
  22086214.951 3         0.000       93870.791          22.000  
 15 01 30 12 28 39.3730567  0  8G03G07G09G10G16G20G23G30             0.006764023
  25299555.884 4         0.000       99890.619          26.000  
  20996323.221 6         0.000       95678.533          38.000  
  21090284.662 4         0.000       98702.776          25.000  
  20185027.910 2         0.000       96356.782          17.000  
  19205800.182 3         0.000       96346.015          20.000  
  21092006.274 6         0.000       98710.720          36.000  
  23242963.164 6         0.000       99600.360          38.000  
  22085642.282 3         0.000       93874.281          20.000  
 15 01 30 12 28 40.3730563  0  8G03G07G09G10G16G20G23G30             0.006825503
  25300135.283 4         0.000       99894.570          26.000  
  20996100.154 6         0.000       95679.580          38.000  
  21090648.310 4         0.000       98703.248          25.000  
  20184934.702 2         0.000       96366.461          17.000  
  19205708.457 3         0.000       96344.465          20.000  
  21092360.394 6         0.000       98712.105          36.000  
  23243486.324 6         0.000       99599.621          38.000  
  22085082.610 3         0.000       93869.354          23.000  
 15 01 30 12 28 41.3730560  0  8G03G07G09G10G16G20G23G30             0.006886984
  25300710.881 4         0.000       99891.502          26.000  
  20995876.806 6         0.000       95679.006          38.000  
  21090998.858 4         0.000       98703.987          25.000  
  20184847.983 2         0.000       96358.250          17.000  
  19205611.233 3         0.000       96346.549          20.000  
  21092714.205 6         0.000       98711.797          36.000  
  23244009.137 6         0.000       99599.385          38.000  
  22084518.468 4         0.000       93871.140          24.000  
 15 01 30 12 28 42.3730558  0  8G03G07G09G10G16G20G23G30             0.006948466
  25301293.720 4         0.000       99893.031          26.000  
  20995653.133 6         0.000       95678.852          38.000  
  21091349.480 4         0.000       98706.378          25.000  
  20184746.340 2         0.000       96353.015          17.000  
  19205520.950 3         0.000       96342.998          20.000  
  21093067.660 6         0.000       98711.028          36.000  
  23244531.532 6         0.000       99598.667          38.000  
  22083947.431 4         0.000       93876.025          25.000  
