     2.10           OBSERVATION DATA    M                   RINEX VERSION / TYPE
OSPtoRINEX          FC                  20150130 205619 LCL PGM / RUN BY / DATE 
CumbreIGN                                                   MARKER NAME         
VG55889                                                     MARKER NUMBER       
N/A                 N/A                                     OBSERVER / AGENCY   
GSD4e_4.0.4-P1 08/13SiRFIV              GSD4e_4.0.4-P1 08/13REC # / TYPE / VERS 
N/A                 UNKNOWN                                 ANT # / TYPE        
  4846255.0000  -330728.0000  4120734.0000                  APPROX POSITION XYZ 
        0.0000        0.0000        0.0000                  ANTENNA: DELTA H/E/N
     1     0     0                                          WAVELENGTH FACT L1/2
     4    C1    L1    D1    S1                              # / TYPES OF OBSERV 
     1.000                                                  INTERVAL            
  2014    01    11    12    18   47.0000000     GPS         TIME OF FIRST OBS   
                                                            END OF HEADER       
 14 01 11 12 18 47.0000000  0 10G01G04G10G11G13G17G20G23G31G32       0.099393281
  22526141.708 7 118375695.646 7     96211.940          44.000  
  21934989.048 7 115269215.446 7     90637.117          46.000  
  23390301.261 7 122916995.740 7     90480.739          43.000  
  24982880.855 6 131285921.999 6     97075.470          37.000  
  21164919.446 7 111222493.375 7     90921.002          46.000  
  21622104.644 7 113624921.808 7     94432.330          46.000  
  20938279.430 7 110031484.053 7     95012.139          45.000  
  20508580.498 7 107773374.925 7     93235.229          46.000  
  24802297.337 6 130336984.207 6     95013.217          39.000  
  24211418.982 6 127231862.495 6     96189.791          41.000  
 14 01 11 12 18 48.0000000  0 10G01G04G10G11G13G17G20G23G31G32       0.099452545
  22526684.041 7 118378547.623 7     96212.412          44.000  
  21934470.808 7 115266492.076 7     90637.692          46.000  
  23389753.650 7 122914116.024 7     90480.749          43.000  
  24983591.432 6 131289637.107 6     97075.182          37.000  
  21164455.220 7 111220053.849 7     90921.536          46.000  
  21622308.881 7 113625994.083 7     94433.100          46.000  
  20938593.931 7 110033135.765 7     95012.571          45.000  
  20508556.331 7 107773249.927 7     93236.030          46.000  
  24802612.003 6 130338637.788 6     95014.100          39.000  
  24211960.065 6 127234691.908 6     96189.945          41.000  
 14 01 11 12 18 49.0000000  0 10G01G04G10G11G13G17G20G23G31G32       0.099511809
  22527227.073 7 118381400.276 7     96213.326          44.000  
  21933952.500 7 115263769.350 7     90638.020          46.000  
  23389207.480 7 122911236.880 7     90481.539          43.000  
  24984297.529 6 131293352.675 6     97076.722          37.000  
  21163991.154 7 111217615.167 7     90922.069          46.000  
  21622514.260 7 113627067.355 7     94433.932          46.000  
  20938908.743 7 110034788.112 7     95012.725          45.000  
  20508532.720 7 107773125.848 7     93236.615          46.000  
  24802928.356 6 130340292.233 6     95014.500          39.000  
  24212498.557 6 127237521.702 6     96190.396          41.000  
 14 01 11 12 18 50.0000000  0 10G01G04G10G11G13G17G20G23G31G32       0.099571072
  22527770.870 7 118384254.946 7     96213.500          44.000  
  21933435.716 7 115261048.631 7     90638.103          46.000  
  23388657.857 7 122908359.595 7     90481.806          43.000  
  24985001.293 6 131297069.978 6     97075.829          37.000  
  21163528.082 7 111215178.706 7     90922.654          46.000  
  21622718.751 7 113628142.962 7     94434.352          46.000  
  20939223.360 7 110036442.438 7     95013.176          45.000  
  20508510.308 7 107773004.071 7     93237.210          46.000  
  24803240.586 6 130341949.013 6     95015.342          39.000  
  24213036.798 6 127240353.174 6     96189.914          41.000  
 14 01 11 12 18 51.0000000  0 10G01G04G10G11G13G17G20G23G31G32       0.099630333
  22528314.370 7 118387113.062 7     96213.818          44.000  
  21932918.639 7 115258331.375 7     90638.575          46.000  
  23388111.526 7 122905485.603 7     90481.642          43.000  
  24985708.144 6 131300790.504 6     97076.116          37.000  
  21163064.371 7 111212745.889 7     90923.168          46.000  
  21622923.958 7 113629222.336 7     94435.194          46.000  
  20939539.197 7 110038100.169 7     95013.351          45.000  
  20508486.701 7 107772886.014 7     93238.001          46.000  
  24803557.126 6 130343609.439 6     95016.204          39.000  
  24213575.075 6 127243187.838 6     96189.914          41.000  
 14 01 11 12 18 52.0000000  0 10G01G04G10G11G13G17G20G23G31G32       0.099689594
  22528856.951 7 118389971.343 7     96214.003          44.000  
  21932401.209 7 115255614.258 7     90638.657          46.000  
  23387565.393 7 122902611.658 7     90482.135          43.000  
  24986419.727 6 131304510.898 6     97075.500          37.000  
  21162600.916 7 111210313.414 7     90923.722          46.000  
  21623128.878 7 113630302.198 7     94435.830          46.000  
  20939854.868 7 110039758.034 7     95013.833          45.000  
  20508464.890 7 107772768.399 7     93238.421          46.000  
  24803872.600 6 130345270.267 6     95016.851          39.000  
  24214115.614 6 127246022.393 6     96190.273          41.000  
 14 01 11 12 18 53.0000000  0 10G01G04G10G11G13G17G20G23G31G32       0.099748858
  22529401.134 7 118392825.041 7     96213.941          44.000  
  21931884.808 7 115252892.558 7     90638.708          46.000  
  23387019.686 7 122899732.947 7     90482.432          43.000  
  24987127.153 6 131308226.447 6     97075.090          37.000  
  21162137.385 7 111207876.543 7     90923.907          46.000  
  21623332.604 7 113631377.782 7     94436.025          47.000  
  20940168.513 7 110041411.247 7     95013.474          45.000  
  20508441.872 7 107772646.441 7     93238.493          46.000  
  24804188.764 6 130346926.724 6     95017.128          39.000  
  24214653.884 6 127248852.022 6     96189.883          41.000  
 14 01 11 12 18 54.0000000  0 10G01G04G10G11G13G17G20G23G31G32       0.099808120
  22529944.852 7 118395682.301 7     96214.321          44.000  
  21931367.180 7 115250174.404 7     90639.375          46.000  
  23386470.824 7 122896857.660 7     90481.734          43.000  
  24987832.550 6 131311945.334 6     97076.188          37.000  
  21161675.520 7 111205443.429 7     90924.779          46.000  
  21623539.160 7 113632457.243 7     94436.908          46.000  
  20940483.780 7 110043067.988 7     95013.874          45.000  
  20508419.968 7 107772528.333 7     93239.283          46.000  
  24804505.270 6 130348586.973 6     95017.620          39.000  
  24215192.778 6 127251684.929 6     96190.232          41.000  
 14 01 11 12 18 55.0000000  0 10G01G04G10G11G13G17G20G23G31G32       0.099867383
  22530488.325 7 118398538.269 7     96214.824          44.000  
  21930847.977 7 115247454.973 7     90639.570          46.000  
  23385924.548 7 122893980.957 7     90482.412          43.000  
  24988537.840 6 131315662.658 6     97075.511          37.000  
  21161212.871 7 111203009.190 7     90924.707          46.000  
  21623743.439 7 113633535.734 7     94437.237          47.000  
  20940799.366 7 110044723.406 7     95014.644          45.000  
  20508397.106 7 107772409.193 7     93239.704          46.000  
  24804819.109 6 130350246.205 6     95018.277          38.000  
  24215730.609 6 127254516.246 6     96189.935          41.000  
 14 01 11 12 18 56.0000000  0 10G01G04G10G11G13G17G20G23G31G32       0.099926647
  22531031.010 7 118401393.097 7     96215.153          44.000  
  21930331.598 7 115244734.380 7     90639.950          46.000  
  23385376.695 7 122891102.972 7     90482.884          43.000  
  24989249.907 6 131319378.594 6     97075.593          37.000  
  21160749.474 7 111200574.021 7     90925.436          46.000  
  21623949.656 7 113634613.415 7     94438.283          47.000  
  20941113.772 7 110046377.619 7     95014.675          45.000  
  20508374.649 7 107772289.179 7     93240.525          46.000  
  24805132.772 6 130351904.519 6     95019.263          38.000  
  24216267.406 6 127257346.136 6     96190.047          41.000  
 14 01 11 12 18 57.0000000  0 10G01G04G10G11G13G17G20G23G31G32       0.099985906
  22531574.664 7 118404256.018 7     96215.029          44.000  
  21929815.238 7 115242021.894 7     90640.432          46.000  
  23384828.071 7 122888232.931 7     90482.935          43.000  
  24989960.803 6 131323102.379 6     97076.517          37.000  
  21160287.466 7 111198147.153 7     90926.103          46.000  
  21624155.761 7 113635699.503 7     94438.632          47.000  
  20941430.090 7 110048039.879 7     95014.459          45.000  
  20508353.213 7 107772177.531 7     93240.813          46.000  
  24805450.114 6 130353571.158 6     95019.211          38.000  
  24216810.256 6 127260183.833 6     96190.253          41.000  
 14 01 11 12 18 58.0000000  0 10G01G04G10G11G13G17G20G23G31G32       0.000045171
  22532118.671 7 118407109.798 7     96215.830          44.000  
  21929297.322 7 115239300.222 7     90640.751          46.000  
  23384282.413 7 122885353.482 7     90482.597          43.000  
  24990663.813 6 131326816.722 6     97075.839          37.000  
  21159823.558 7 111195711.300 7     90926.575          46.000  
  21624360.943 7 113636776.741 7     94439.402          47.000  
  20941743.706 7 110049692.941 7     95014.911          45.000  
  20508329.892 7 107772056.983 7     93241.880          46.000  
  24805767.278 6 130355228.870 6     95019.889          38.000  
  24217347.496 6 127263012.045 6     96190.089          41.000  
 14 01 11 12 18 59.0000000  0 10G01G04G10G11G13G17G20G23G31G32       0.000104433
  22532662.687 7 118409968.620 7     96215.748          44.000  
  21928780.939 7 115236583.611 7     90640.751          46.000  
  23383734.481 7 122882479.079 7     90483.469          43.000  
  24991371.361 6 131330535.909 6     97075.932          37.000  
  21159362.364 7 111193280.711 7     90926.688          46.000  
  21624567.532 7 113637859.374 7     94439.967          47.000  
  20942059.616 7 110051351.063 7     95015.527          45.000  
  20508308.348 7 107771941.768 7     93241.962          46.000  
  24806085.453 6 130356891.890 6     95020.545          38.000  
  24217886.405 6 127265845.034 6     96189.709          41.000  
 14 01 11 12 18 59.9999999  0 10G01G04G10G11G13G17G20G23G31G32       0.000163696
  22533205.681 7 118412826.072 7     96216.353          44.000  
  21928263.530 7 115233865.610 7     90641.058          46.000  
  23383189.101 7 122879603.089 7     90482.792          43.000  
  24992080.498 6 131334253.450 6     97075.849          37.000  
  21158899.796 7 111190848.897 7     90926.780          46.000  
  21624774.295 7 113638940.923 7     94440.562          47.000  
  20942374.865 7 110053007.705 7     95015.609          45.000  
  20508286.015 7 107771825.406 7     93242.445          46.000  
  24806399.979 6 130358553.733 6     95020.638          38.000  
  24218426.323 6 127268676.323 6     96189.965          41.000  
 14 01 11 12 19  0.9999999  0 10G01G04G10G11G13G17G20G23G31G32       0.000222958
  22533750.529 7 118415685.266 7     96216.405          44.000  
  21927746.833 7 115231149.348 7     90641.366          46.000  
  23382640.420 7 122876728.748 7     90483.541          43.000  
  24992791.058 6 131337972.468 6     97076.547          37.000  
  21158436.461 7 111188419.059 7     90927.971          46.000  
  21624979.361 7 113640024.549 7     94441.178          46.000  
  20942690.057 7 110054666.050 7     95015.824          45.000  
  20508264.642 7 107771711.090 7     93243.132          46.000  
  24806717.933 6 130360217.596 6     95021.120          38.000  
  24218964.618 6 127271509.080 6     96189.750          41.000  
 14 01 11 12 19  2.0000000  0 10G01G04G10G11G13G17G20G23G31G32       0.000282219
  22534294.969 7 118418546.320 7     96216.743          44.000  
  21927230.106 7 115228434.929 7     90641.695          46.000  
  23382092.628 7 122873856.080 7     90483.479          43.000  
  24993496.211 6 131341693.073 6     97076.280          37.000  
  21157975.033 7 111185991.237 7     90928.248          46.000  
  21625186.359 7 113641110.334 7     94441.681          46.000  
  20943006.546 7 110056326.214 7     95016.040          45.000  
  20508241.385 7 107771598.870 7     93243.717          46.000  
  24807034.380 6 130361883.533 6     95021.839          38.000  
  24219503.398 6 127274343.388 6     96189.986          41.000  
 14 01 11 12 19  2.9999999  0 10G01G04G10G11G13G17G20G23G31G32       0.000341483
  22534838.573 7 118421402.976 7     96217.010          44.000  
  21926712.921 7 115225716.104 7     90641.972          46.000  
  23381549.111 7 122870978.882 7     90483.048          43.000  
  24994204.861 6 131345409.056 6     97076.034          37.000  
  21157512.043 7 111183559.209 7     90928.967          46.000  
  21625391.252 7 113642192.050 7     94442.163          46.000  
  20943322.382 7 110057981.942 7     95016.173          45.000  
  20508220.959 7 107771482.534 7     93244.456          46.000  
  24807350.228 6 130363545.327 6     95022.095          37.000  
  24220041.852 6 127277172.983 6     96189.924          41.000  
 14 01 11 12 19  3.9999999  0 10G01G04G10G11G13G17G20G23G31G32       0.000400745
  22535382.268 7 118424263.112 7     96217.462          44.000  
  21926196.400 7 115223000.769 7     90642.629          46.000  
  23380999.002 7 122868105.040 7     90483.756          43.000  
  24994908.986 6 131349128.255 6     97075.962          37.000  
  21157049.757 7 111181130.878 7     90929.644          46.000  
  21625597.249 7 113643277.570 7     94443.169          46.000  
  20943638.109 7 110059641.098 7     95016.430          45.000  
  20508198.199 7 107771369.928 7     93244.990          46.000  
  24807664.878 6 130365210.824 6     95022.896          37.000  
  24220581.487 6 127280005.784 6     96190.366          41.000  
 14 01 11 12 19  4.9999999  0 10G01G04G10G11G13G17G20G23G31G32       0.000460009
  22535926.941 7 118427120.390 7     96217.431          44.000  
  21925678.378 7 115220282.545 7     90642.177          46.000  
  23380450.032 7 122865228.183 7     90483.572          43.000  
  24995620.319 6 131352844.335 6     97075.418          37.000  
  21156587.911 7 111178699.862 7     90929.613          46.000  
  21625802.571 7 113644360.546 7     94443.549          46.000  
  20943953.095 7 110061297.359 7     95016.296          45.000  
  20508177.609 7 107771254.730 7     93245.247          46.000  
  24807980.940 6 130366873.739 6     95023.727          37.000  
  24221120.136 6 127282835.406 6     96189.555          41.000  
 14 01 11 12 19  5.9999999  0 10G01G04G10G11G13G17G20G23G31G32       0.000519272
  22536471.179 7 118429979.380 7     96217.719          44.000  
  21925161.633 7 115217566.032 7     90642.239          46.000  
  23379904.023 7 122862352.885 7     90483.151          43.000  
  24996327.555 6 131356561.888 6     97076.024          37.000  
  21156126.048 7 111176270.756 7     90930.332          46.000  
  21626010.182 7 113645445.553 7     94444.288          46.000  
  20944269.349 7 110062955.289 7     95016.317          45.000  
  20508155.874 7 107771141.512 7     93245.801          46.000  
  24808298.310 6 130368538.530 6     95023.809          37.000  
  24221657.539 6 127285666.478 6     96189.411          41.000  
 14 01 11 12 19  6.9999999  0 10G01G04G10G11G13G17G20G23G31G32       0.000578534
  22537016.151 7 118432840.226 7     96218.088          44.000  
  21924645.436 7 115214851.398 7     90642.814          45.000  
  23379357.198 7 122859479.301 7     90483.531          43.000  
  24997034.521 6 131360281.020 6     97076.311          37.000  
  21155663.813 7 111173843.694 7     90930.681          46.000  
  21626216.116 7 113646532.740 7     94444.801          46.000  
  20944584.999 7 110064615.040 7     95017.169          45.000  
  20508134.925 7 107771030.419 7     93246.632          46.000  
  24808614.381 6 130370205.496 6     95024.620          37.000  
  24222197.517 6 127288499.077 6     96189.493          41.000  
 14 01 11 12 19  7.9999999  0 10G01G04G10G11G13G17G20G23G31G32       0.000637792
  22537560.112 7 118435707.760 7     96218.365          44.000  
  21924128.797 7 115212143.440 7     90643.296          45.000  
  23378812.766 7 122856612.293 7     90484.300          43.000  
  24997743.668 6 131364006.611 6     97076.568          37.000  
  21155203.838 7 111171423.508 7     90931.225          46.000  
  21626422.999 7 113647626.920 7     94445.519          46.000  
  20944901.913 7 110066281.433 7     95017.733          45.000  
  20508114.537 7 107770926.279 7     93247.330          46.000  
  24808937.081 6 130371879.297 6     95024.682          37.000  
  24222737.192 6 127291338.090 6     96189.904          41.000  
 14 01 11 12 19  8.9999999  0 10G01G04G10G11G13G17G20G23G31G32       0.000697056
  22538104.994 7 118438566.136 7     96218.540          44.000  
  21923611.937 7 115209426.327 7     90643.768          45.000  
  23378264.849 7 122853735.966 7     90484.711          43.000  
  24998451.400 6 131367722.767 6     97076.691          37.000  
  21154740.256 7 111168994.367 7     90931.512          46.000  
  21626630.867 7 113648712.274 7     94445.868          46.000  
  20945216.315 7 110067938.629 7     95017.651          45.000  
  20508094.166 7 107770813.234 7     93247.669          46.000  
  24809256.003 6 130373544.243 6     95025.328          37.000  
  24223276.400 6 127294167.645 6     96189.955          41.000  
 14 01 11 12 19  9.9999999  0 10G01G04G10G11G13G17G20G23G31G32       0.000756317
  22538648.931 7 118441429.546 7     96219.084          44.000  
  21923094.884 7 115206714.190 7     90643.737          45.000  
  23377718.995 7 122850864.487 7     90484.639          43.000  
  24999160.800 6 131371443.690 6     97076.742          37.000  
  21154279.377 7 111166570.433 7     90932.220          46.000  
  21626838.985 7 113649802.940 7     94446.392          46.000  
  20945533.566 7 110069600.794 7     95018.000          45.000  
  20508073.087 7 107770705.459 7     93248.008          46.000  
  24809569.826 6 130375214.395 6     95026.078          37.000  
  24223816.306 6 127297001.873 6     96189.350          41.000  
 14 01 11 12 19 10.9999999  0 10G01G04G10G11G13G17G20G23G31G32       0.000815578
  22539195.211 7 118444293.267 7     96219.320          44.000  
  21922578.090 7 115204002.419 7     90644.466          45.000  
  23377172.039 7 122847993.211 7     90484.721          43.000  
  24999867.741 6 131375164.691 6     97076.168          37.000  
  21153818.406 7 111164147.016 7     90932.467          46.000  
  21627046.471 7 113650894.283 7     94447.305          46.000  
  20945849.349 7 110071263.246 7     95018.031          45.000  
  20508052.699 7 107770598.320 7     93248.747          46.000  
  24809888.340 6 130376885.195 6     95027.248          37.000  
  24224353.189 6 127299836.211 6     96189.729          41.000  
 14 01 11 12 19 11.9999999  0 10G01G04G10G11G13G17G20G23G31G32       0.000874840
  22539738.967 7 118447155.724 7     96219.638          44.000  
  21922062.381 7 115201289.354 7     90644.723          45.000  
  23376624.430 7 122845120.510 7     90484.762          43.000  
  25000571.534 6 131378884.144 6     97075.993          37.000  
  21153356.849 7 111161722.515 7     90933.011          46.000  
  21627253.959 7 113651984.644 7     94447.665          46.000  
  20946165.643 7 110072924.380 7     95018.585          45.000  
  20508032.685 7 107770490.146 7     93249.301          46.000  
  24810207.022 6 130378554.879 6     95027.432          37.000  
  24224892.049 6 127302668.941 6     96189.935          41.000  
 14 01 11 12 19 12.9999999  0 10G01G04G10G11G13G17G20G23G31G32       0.000934105
  22540284.146 7 118450013.660 7     96219.843          44.000  
  21921545.998 7 115198571.744 7     90644.599          45.000  
  23376077.835 7 122842243.133 7     90484.352          43.000  
  25001283.559 6 131382598.865 6     97076.106          37.000  
  21152894.844 7 111159293.665 7     90933.534          46.000  
  21627460.840 7 113653070.807 7     94448.414          46.000  
  20946482.587 7 110074580.931 7     95018.493          45.000  
  20508011.288 7 107770377.705 7     93249.588          46.000  
  24810523.558 6 130380220.289 6     95027.391          37.000  
  24225432.659 6 127305496.865 6     96189.955          41.000  
 14 01 11 12 19 13.9999999  0 10G01G04G10G11G13G17G20G23G31G32       0.000993366
  22540828.304 7 118452878.225 7     96220.038          44.000  
  21921029.741 7 115195860.792 7     90644.928          45.000  
  23375530.959 7 122839372.278 7     90485.050          43.000  
  25001991.269 6 131386319.903 6     97076.085          37.000  
  21152434.527 7 111156871.682 7     90933.904          46.000  
  21627669.045 7 113654163.933 7     94448.783          46.000  
  20946798.505 7 110076244.092 7     95018.985          45.000  
  20507990.065 7 107770272.175 7     93250.153          46.000  
  24810842.162 6 130381892.567 6     95027.987          37.000  
  24225971.616 6 127308331.102 6     96189.380          41.000  
 14 01 11 12 19 14.9999999  0 10G01G04G10G11G13G17G20G23G31G32       0.001052628
  22541374.131 7 118455741.569 7     96220.551          44.000  
  21920512.867 7 115193148.603 7     90645.236          45.000  
  23374984.390 7 122836500.039 7     90485.388          43.000  
  25002697.948 6 131390039.530 6     97077.348          37.000  
  21151972.867 7 111154448.641 7     90934.663          46.000  
  21627876.889 7 113655256.159 7     94449.779          46.000  
  20947115.132 7 110077905.980 7     95019.180          45.000  
  20507970.373 7 107770165.695 7     93251.251          46.000  
  24811159.823 6 130383563.882 6     95028.890          37.000  
  24226509.906 6 127311163.835 6     96189.678          41.000  
 14 01 11 12 19 15.9999999  0 10G01G04G10G11G13G17G20G23G31G32       0.001111891
  22541918.941 7 118458603.565 7     96220.705          44.000  
  21919997.063 7 115190435.031 7     90645.472          45.000  
  23374436.961 7 122833626.279 7     90485.409          43.000  
  25003401.842 6 131393757.514 6     97076.599          37.000  
  21151510.987 7 111152024.447 7     90934.848          46.000  
  21628084.154 7 113656347.347 7     94450.446          46.000  
  20947431.303 7 110079566.468 7     95019.252          45.000  
  20507949.521 7 107770058.117 7     93251.569          46.000  
  24811476.885 6 130385234.057 6     95029.280          37.000  
  24227046.165 6 127313994.894 6     96189.411          41.000  
 14 01 11 12 19 16.9999999  0 10G01G04G10G11G13G17G20G23G31G32       0.001171152
  22542462.297 7 118461468.919 7     96220.746          44.000  
  21919481.714 7 115187724.855 7     90645.564          45.000  
  23373893.769 7 122830755.787 7     90485.316          43.000  
  25004115.650 6 131397478.606 6     97076.701          37.000  
  21151050.546 7 111149603.812 7     90935.505          46.000  
  21628293.263 7 113657442.224 7     94450.908          46.000  
  20947746.968 7 110081230.299 7     95019.889          45.000  
  20507930.312 7 107769954.173 7     93252.113          46.000  
  24811794.063 6 130386907.839 6     95029.619          37.000  
  24227586.246 6 127316829.042 6     96189.308          41.000  
 14 01 11 12 19 17.9999999  0 10G01G04G10G11G13G17G20G23G31G32       0.001230414
  22543007.497 7 118464332.965 7     96221.403          44.000  
  21918967.056 7 115185013.309 7     90645.708          45.000  
  23373344.394 7 122827883.805 7     90485.830          43.000  
  25004823.061 6 131401198.071 6     97076.373          37.000  
  21150589.887 7 111147182.035 7     90936.162          46.000  
  21628500.466 7 113658536.079 7     94451.359          46.000  
  20948063.507 7 110082892.723 7     95019.786          45.000  
  20507909.756 7 107769849.153 7     93252.637          46.000  
  24812114.078 6 130388580.527 6     95030.029          38.000  
  24228126.213 6 127319661.585 6     96189.904          41.000  
 14 01 11 12 19 18.9999999  0 10G01G04G10G11G13G17G20G23G31G32       0.001289675
  22543553.638 7 118467198.952 7     96221.814          44.000  
  21918449.917 7 115182303.728 7     90646.396          45.000  
  23372799.168 7 122825013.621 7     90486.055          43.000  
  25005527.186 6 131404919.276 6     97076.948          37.000  
  21150129.063 7 111144762.386 7     90936.849          46.000  
  21628709.433 7 113659632.210 7     94451.934          46.000  
  20948380.030 7 110084557.060 7     95020.227          45.000  
  20507889.240 7 107769746.340 7     93253.181          46.000  
  24812432.797 6 130390255.408 6     95030.973          38.000  
  24228664.391 6 127322495.732 6     96189.740          41.000  
 14 01 11 12 19 19.9999999  0 10G01G04G10G11G13G17G20G23G31G32       0.001348939
  22544096.864 7 118470060.625 7     96222.286          44.000  
  21917934.050 7 115179589.825 7     90646.724          45.000  
  23372251.196 7 122822139.006 7     90486.528          43.000  
  25006231.587 6 131408635.926 6     97077.081          37.000  
  21149668.028 7 111142338.631 7     90937.311          46.000  
  21628917.835 7 113660724.368 7     94452.909          46.000  
  20948695.538 7 110086217.068 7     95020.648          45.000  
  20507868.151 7 107769639.514 7     93253.991          46.000  
  24812750.540 6 130391926.160 6     95030.902          38.000  
  24229204.930 6 127325325.282 6     96189.935          41.000  
 14 01 11 12 19 20.9999999  0 10G01G04G10G11G13G17G20G23G31G32       0.001408199
  22544642.693 7 118472928.976 7     96222.337          44.000  
  21917418.122 7 115176882.604 7     90646.929          45.000  
  23371707.507 7 122819270.902 7     90486.333          43.000  
  25006946.342 6 131412358.987 6     97076.907          37.000  
  21149207.921 7 111139921.753 7     90937.496          46.000  
  21629126.613 7 113661823.506 7     94453.279          46.000  
  20949013.638 7 110087883.697 7     95020.463          45.000  
  20507849.329 7 107769539.603 7     93254.135          46.000  
  24813069.042 6 130393603.898 6     95032.072          38.000  
  24229742.122 6 127328161.245 6     96189.924          41.000  
 14 01 11 12 19 21.9999999  0 10G01G04G10G11G13G17G20G23G31G32       0.001467462
  22545187.853 7 118475792.813 7     96222.635          44.000  
  21916901.522 7 115174170.856 7     90646.960          45.000  
  23371159.695 7 122816398.131 7     90486.394          43.000  
  25007652.569 6 131416077.236 6     97076.599          37.000  
  21148747.752 7 111137500.548 7     90937.906          46.000  
  21629334.783 7 113662918.444 7     94453.679          46.000  
  20949329.348 7 110089545.761 7     95020.576          45.000  
  20507830.270 7 107769435.450 7     93254.679          46.000  
  24813387.098 6 130395277.293 6     95032.297          38.000  
  24230283.336 6 127330992.347 6     96189.411          41.000  
 14 01 11 12 19 22.9999999  0 10G01G04G10G11G13G17G20G23G31G32       0.001526725
  22545733.444 7 118478656.913 7     96223.271          44.000  
  21916386.113 7 115171459.364 7     90647.720          45.000  
  23370611.907 7 122813525.487 7     90486.404          43.000  
  25008356.329 6 131419795.521 6     97076.886          37.000  
  21148286.332 7 111135079.772 7     90938.409          46.000  
  21629543.064 7 113664013.968 7     94454.654          46.000  
  20949645.481 7 110091208.053 7     95021.274          45.000  
  20507810.358 7 107769331.810 7     93255.439          46.000  
  24813702.974 6 130396951.229 6     95033.324          38.000  
  24230821.882 6 127333823.422 6     96189.709          41.000  
 14 01 11 12 19 23.9999999  0 10G01G04G10G11G13G17G20G23G31G32       0.001585987
  22546278.277 7 118481523.025 7     96223.528          44.000  
  21915869.569 7 115168749.906 7     90648.038          45.000  
  23370068.286 7 122810654.737 7     90487.010          43.000  
  25009064.614 6 131423515.584 6     97077.286          37.000  
  21147825.912 7 111132661.243 7     90939.230          46.000  
  21629751.790 7 113665111.835 7     94455.403          46.000  
  20949961.803 7 110092872.333 7     95021.664          45.000  
  20507791.267 7 107769230.486 7     93256.301          46.000  
  24814024.220 6 130398627.389 6     95033.693          38.000  
  24231359.808 6 127336656.240 6     96190.089          41.000  
 14 01 11 12 19 24.9999999  0 10G01G04G10G11G13G17G20G23G31G32       0.001645248
  22546823.847 7 118484391.017 7     96223.979          44.000  
  21915354.332 7 115166042.318 7     90648.346          45.000  
  23369520.042 7 122807785.698 7     90486.682          43.000  
  25009771.867 6 131427237.224 6     97077.163          37.000  
  21147365.688 7 111130244.753 7     90939.282          46.000  
  21629961.315 7 113666211.896 7     94456.081          46.000  
  20950278.470 7 110094538.432 7     95021.849          45.000  
  20507771.251 7 107769131.301 7     93257.019          46.000  
  24814342.253 6 130400305.666 6     95033.960          38.000  
  24231900.124 6 127339490.621 6     96190.119          41.000  
 14 01 11 12 19 25.9999999  0 10G01G04G10G11G13G17G20G23G31G32       0.001704512
  22547369.177 7 118487254.749 7     96224.308          44.000  
  21914838.090 7 115163330.444 7     90648.818          45.000  
  23368974.580 7 122804912.273 7     90487.472          43.000  
  25010479.787 6 131430954.369 6     97076.937          37.000  
  21146905.077 7 111127824.225 7     90940.298          46.000  
  21630170.274 7 113667307.984 7     94456.645          46.000  
  20950595.839 7 110096200.218 7     95022.075          45.000  
  20507752.943 7 107769028.093 7     93257.450          46.000  
  24814663.139 6 130401979.934 6     95034.874          38.000  
  24232437.094 6 127342320.417 6     96189.986          41.000  
 14 01 11 12 19 26.9999999  0 10G01G04G10G11G13G17G20G23G31G32       0.001763772
  22547914.233 7 118490125.036 7     96224.349          44.000  
  21914323.853 7 115160625.114 7     90648.962          45.000  
  23368425.768 7 122802045.249 7     90487.092          43.000  
  25011191.378 6 131434677.806 6     97077.728          37.000  
  21146446.318 7 111125410.429 7     90940.637          46.000  
  21630379.971 7 113668410.944 7     94457.076          46.000  
  20950914.449 7 110097868.523 7     95022.280          45.000  
  20507733.464 7 107768931.732 7     93257.810          46.000  
  24814984.555 6 130403660.985 6     95035.469          38.000  
  24232977.354 6 127345156.506 6     96189.986          41.000  
 14 01 11 12 19 27.9999999  0 10G01G04G10G11G13G17G20G23G31G32       0.001823036
  22548460.212 7 118492989.172 7     96224.503          44.000  
  21913808.446 7 115157913.630 7     90649.321          45.000  
  23367880.512 7 122799171.910 7     90487.174          43.000  
  25011900.222 6 131438394.803 6     97077.502          37.000  
  21145986.805 7 111122990.672 7     90941.078          46.000  
  21630589.322 7 113669508.091 7     94457.949          46.000  
  20951229.595 7 110099530.627 7     95022.496          45.000  
  20507714.957 7 107768829.474 7     93258.384          46.000  
  24815305.036 6 130405336.128 6     95036.054          39.000  
  24233515.815 6 127347986.138 6     96190.109          41.000  
 14 01 11 12 19 28.9999999  0 10G01G04G10G11G13G17G20G23G31G32       0.001882298
  22549006.289 7 118495856.827 7     96224.359          44.000  
  21913292.187 7 115155205.670 7     90649.157          45.000  
  23367335.147 7 122796301.996 7     90487.667          43.000  
  25012602.837 6 131442115.068 6     97076.044          37.000  
  21145526.666 7 111120574.629 7     90941.252          46.000  
  21630798.069 7 113670609.067 7     94458.154          46.000  
  20951547.117 7 110101196.218 7     95022.793          45.000  
  20507696.408 7 107768731.000 7     93258.692          46.000  
  24815624.519 6 130407015.022 6     95035.633          39.000  
  24234054.709 6 127350819.043 6     96190.027          40.000  
 14 01 11 12 19 29.9999999  0 10G01G04G10G11G13G17G20G23G31G32       0.001941561
  22549551.561 7 118498723.249 7     96225.191          44.000  
  21912776.832 7 115152496.464 7     90649.865          45.000  
  23366789.134 7 122793430.677 7     90487.790          43.000  
  25013311.842 6 131445833.919 6     97077.492          37.000  
  21145065.947 7 111118157.530 7     90941.930          46.000  
  21631008.544 7 113671709.122 7     94459.211          46.000  
  20951863.631 7 110102860.510 7     95023.142          45.000  
  20507676.725 7 107768631.562 7     93259.585          46.000  
  24815945.524 6 130408692.912 6     95036.937          39.000  
  24234593.483 6 127353650.318 6     96189.565          40.000  
 14 01 11 12 19 30.9999999  0 10G01G04G10G11G13G17G20G23G31G32       0.002000824
  22550098.802 7 118501590.020 7     96225.827          44.000  
  21912263.254 7 115149787.595 7     90650.337          45.000  
  23366244.108 7 122790559.546 7     90487.934          43.000  
  25014023.326 6 131449552.794 6     97077.574          37.000  
  21144605.331 7 111115740.981 7     90943.038          46.000  
  21631217.244 7 113672809.845 7     94459.960          46.000  
  20952180.204 7 110104525.111 7     95023.707          45.000  
  20507657.918 7 107768532.733 7     93260.304          46.000  
  24816263.213 6 130410371.381 6     95037.470          39.000  
  24235133.225 6 127356481.683 6     96190.160          40.000  
 14 01 11 12 19 31.9999999  0 10G01G04G10G11G13G17G20G23G31G32       0.002060086
  22550643.751 7 118504458.751 7     96226.073          44.000  
  21911747.957 7 115147080.688 7     90650.573          45.000  
  23365698.285 7 122787690.228 7     90487.574          43.000  
  25014729.805 6 131453273.361 6     97078.302          37.000  
  21144145.885 7 111113326.574 7     90943.244          46.000  
  21631427.326 7 113673912.834 7     94460.443          46.000  
  20952497.520 7 110106191.620 7     95023.686          45.000  
  20507639.343 7 107768436.121 7     93260.704          46.000  
  24816582.081 6 130412052.044 6     95038.096          39.000  
  24235674.237 6 127359314.719 6     96189.914          40.000  
 14 01 11 12 19 33.0000000  0 10G01G04G10G11G13G17G20G23G31G32       0.002119349
  22551188.825 7 118507326.131 7     96226.381          44.000  
  21911232.970 7 115144372.414 7     90650.706          45.000  
  23365151.428 7 122784819.476 7     90488.437          43.000  
  25015432.938 6 131456992.350 6     97077.081          37.000  
  21143686.411 7 111110911.022 7     90943.593          45.000  
  21631637.215 7 113675014.808 7     94461.100          46.000  
  20952814.956 7 110107856.758 7     95024.179          45.000  
  20507620.566 7 107768338.444 7     93261.515          45.000  
  24816901.502 6 130413731.613 6     95038.363          39.000  
  24236211.699 6 127362146.101 6     96190.325          40.000  
 14 01 11 12 19 34.0000000  0 10G01G04G10G11G13G17G20G23G31G32       0.002178611
  22551738.276 7 118510195.515 7     96226.443          44.000  
  21910717.037 7 115141666.168 7     90651.250          45.000  
  23364604.530 7 122781950.508 7     90488.067          43.000  
  25016141.354 6 131460713.103 6     97077.553          37.000  
  21143226.787 7 111108497.680 7     90944.106          45.000  
  21631847.544 7 113676119.094 7     94461.798          46.000  
  20953131.812 7 110109523.847 7     95024.384          45.000  
  20507602.601 7 107768243.038 7     93262.223          45.000  
  24817220.584 6 130415413.397 6     95038.815          40.000  
  24236748.343 6 127364979.183 6     96189.791          40.000  
 14 01 11 12 19 35.0000000  0 10G01G04G10G11G13G17G20G23G31G32       0.002237873
  22552280.925 7 118513065.155 7     96226.843          44.000  
  21910202.099 7 115138960.149 7     90651.343          45.000  
  23364059.565 7 122779081.698 7     90488.580          43.000  
  25016853.753 6 131464433.784 6     97077.461          37.000  
  21142768.576 7 111106084.763 7     90944.629          45.000  
  21632057.980 7 113677223.945 7     94462.177          46.000  
  20953449.657 7 110111191.135 7     95024.538          45.000  
  20507585.109 7 107768148.119 7     93262.408          45.000  
  24817542.620 6 130417095.709 6     95039.790          40.000  
  24237287.076 6 127367812.243 6     96190.212          40.000  
 14 01 11 12 19 36.0000000  0 10G01G04G10G11G13G17G20G23G31G32       0.002297136
  22552827.304 7 118515933.397 7     96227.110          44.000  
  21909685.945 7 115136252.744 7     90651.640          45.000  
  23363513.543 7 122776211.334 7     90488.981          43.000  
  25017560.519 6 131468152.864 6     97077.235          37.000  
  21142309.185 7 111103670.651 7     90945.183          45.000  
  21632268.976 7 113678327.735 7     94462.865          46.000  
  20953766.280 7 110112856.996 7     95024.846          45.000  
  20507566.645 7 107768052.089 7     93262.993          45.000  
  24817862.527 6 130418776.831 6     95040.129          40.000  
  24237828.719 6 127370643.600 6     96190.119          40.000  
 14 01 11 12 19 37.0000000  0 10G01G04G10G11G13G17G20G23G31G32       0.002356398
  22553373.240 7 118518803.311 7     96227.500          44.000  
  21909171.629 7 115133546.991 7     90651.866          45.000  
  23362966.666 7 122773342.471 7     90488.170          43.000  
  25018266.034 6 131471873.371 6     97077.307          37.000  
  21141851.481 7 111101258.400 7     90945.481          45.000  
  21632478.255 7 113679433.505 7     94463.419          46.000  
  20954082.639 7 110114524.477 7     95024.784          45.000  
  20507547.788 7 107767957.993 7     93263.578          45.000  
  24818183.177 6 130420459.858 6     95040.396          40.000  
  24238367.768 6 127373476.322 6     96189.575          40.000  
 14 01 11 12 19 38.0000000  0 10G01G04G10G11G13G17G20G23G31G32       0.002415663
  22553920.270 7 118521668.971 7     96227.695          44.000  
  21908656.504 7 115130836.995 7     90652.492          45.000  
  23362419.907 7 122770469.235 7     90488.632          43.000  
  25018972.017 6 131475589.336 6     97077.584          37.000  
  21141391.670 7 111098842.076 7     90945.994          46.000  
  21632689.448 7 113680535.330 7     94464.240          46.000  
  20954401.221 7 110116187.637 7     95024.795          45.000  
  20507528.550 7 107767859.899 7     93264.040          45.000  
  24818504.015 6 130422138.875 6     95041.299          40.000  
  24238905.953 6 127376304.504 6     96190.314          40.000  
 14 01 11 12 19 39.0000000  0 10G01G04G10G11G13G17G20G23G31G32       0.002474923
  22554464.898 7 118524543.010 7     96228.321          44.000  
  21908141.070 7 115128135.371 7     90652.821          45.000  
  23361875.861 7 122767604.255 7     90489.473          43.000  
  25019683.920 6 131479313.413 6     97077.102          37.000  
  21140931.970 7 111096434.338 7     90946.559          46.000  
  21632898.870 7 113681645.851 7     94464.774          46.000  
  20954718.351 7 110117859.165 7     95025.708          45.000  
  20507512.485 7 107767770.479 7     93265.240          45.000  
  24818822.681 6 130423826.474 6     95041.904          40.000  
  24239446.626 6 127379140.759 6     96190.222          40.000  
 14 01 11 12 19 40.0000000  0 10G01G04G10G11G13G17G20G23G31G32       0.002534187
  22555010.863 7 118527411.075 7     96228.362          44.000  
  21907626.976 7 115125427.785 7     90653.170          45.000  
  23361330.653 7 122764733.170 7     90489.720          43.000  
  25020389.132 6 131483031.327 6     97078.220          37.000  
  21140472.883 7 111094020.817 7     90947.051          46.000  
  21633109.692 7 113682750.727 7     94465.380          46.000  
  20955036.049 7 110119524.677 7     95026.170          45.000  
  20507494.950 7 107767675.329 7     93265.528          45.000  
  24819142.926 6 130425508.372 6     95042.438          40.000  
  24239984.588 6 127381970.770 6     96190.417          40.000  
 14 01 11 12 19 41.0000000  0 10G01G04G10G11G13G17G20G23G31G32       0.002593448
  22555558.736 7 118530284.170 7     96228.475          44.000  
  21907112.311 7 115122725.203 7     90653.170          45.000  
  23360784.085 7 122761866.935 7     90489.689          43.000  
  25021100.190 6 131486753.961 6     97077.810          37.000  
  21140014.600 7 111091612.524 7     90947.729          46.000  
  21633321.339 7 113683860.938 7     94465.842          46.000  
  20955352.979 7 110121195.156 7     95026.149          45.000  
  20507477.660 7 107767585.472 7     93265.969          45.000  
  24819464.741 6 130427195.526 6     95042.982          40.000  
  24240523.826 6 127384805.483 6     96190.561          40.000  
 14 01 11 12 19 42.0000000  0 10G01G04G10G11G13G17G20G23G31G32       0.002652711
  22556105.103 7 118533154.349 7     96229.245          44.000  
  21906598.234 7 115120019.709 7     90653.960          45.000  
  23360238.838 7 122758997.639 7     90489.956          43.000  
  25021804.737 6 131490473.380 6     97077.030          37.000  
  21139555.796 7 111089201.491 7     90947.883          46.000  
  21633531.921 7 113684968.553 7     94466.652          46.000  
  20955670.677 7 110122862.672 7     95026.498          45.000  
  20507458.915 7 107767492.967 7     93266.718          45.000  
  24819786.803 6 130428879.973 6     95043.403          40.000  
  24241060.357 6 127387636.971 6     96190.314          40.000  
 14 01 11 12 19 43.0000000  0 10G01G04G10G11G13G17G20G23G31G32       0.002711971
  22556651.458 7 118536029.463 7     96229.450          44.000  
  21906084.526 7 115117319.157 7     90653.939          45.000  
  23359693.171 7 122756133.144 7     90489.894          43.000  
  25022516.472 6 131494197.575 6     97078.538          37.000  
  21139097.781 7 111086795.608 7     90948.581          46.000  
  21633743.120 7 113686081.412 7     94467.022          46.000  
  20955988.739 7 110124535.096 7     95026.724          45.000  
  20507442.872 7 107767405.657 7     93267.242          45.000  
  24820106.619 6 130430569.614 6     95044.286          40.000  
  24241599.486 6 127390473.113 6     96190.704          40.000  
 14 01 11 12 19 44.0000000  0 10G01G04G10G11G13G17G20G23G31G32       0.002771233
  22557197.846 7 118538901.751 7     96229.440          44.000  
  21905569.138 7 115114615.778 7     90654.083          45.000  
  23359145.991 7 122753265.691 7     90490.079          43.000  
  25023224.181 6 131497918.609 6     97077.912          37.000  
  21138639.456 7 111084387.092 7     90948.899          46.000  
  21633954.416 7 113687191.784 7     94467.781          46.000  
  20956305.684 7 110126204.654 7     95026.960          45.000  
  20507426.723 7 107767315.793 7     93267.529          45.000  
  24820427.649 6 130432256.638 6     95044.234          40.000  
  24242138.210 6 127393306.129 6     96190.027          40.000  
 14 01 11 12 19 45.0000000  0 10G01G04G10G11G13G17G20G23G31G32       0.002830493
  22557745.444 7 118541777.399 7     96229.563          44.000  
  21905056.861 7 115111915.739 7     90654.155          45.000  
  23358598.849 7 122750401.438 7     90489.863          43.000  
  25023932.862 6 131501642.754 6     97077.389          37.000  
  21138181.996 7 111081982.123 7     90949.453          46.000  
  21634165.650 7 113688305.821 7     94468.223          46.000  
  20956623.826 7 110127877.501 7     95026.611          45.000  
  20507409.362 7 107767229.564 7     93268.166          45.000  
  24820748.796 6 130433947.276 6     95044.532          40.000  
  24242676.567 6 127396142.214 6     96189.801          40.000  
 14 01 11 12 19 46.0000000  0 10G01G04G10G11G13G17G20G23G31G32       0.002889758
  22558291.398 7 118544645.404 7     96229.758          44.000  
  21904539.706 7 115109208.073 7     90654.545          45.000  
  23358055.364 7 122747529.409 7     90490.212          43.000  
  25024637.960 6 131505359.066 6     97078.272          37.000  
  21137723.690 7 111079569.711 7     90949.566          46.000  
  21634376.820 7 113689412.528 7     94468.798          46.000  
  20956939.936 7 110129542.672 7     95026.837          45.000  
  20507392.688 7 107767135.939 7     93268.350          45.000  
  24821070.247 6 130435630.515 6     95045.055          41.000  
  24243217.601 6 127398970.366 6     96189.965          40.000  
 14 01 11 12 19 47.0000000  0 10G01G04G10G11G13G17G20G23G31G32       0.002949018
  22558836.616 7 118547521.544 7     96229.932          44.000  
  21904026.572 7 115106508.534 7     90654.904          45.000  
  23357508.076 7 122744665.387 7     90490.633          43.000  
  25025344.547 6 131509083.205 6     97077.379          37.000  
  21137265.640 7 111077165.641 7     90950.274          46.000  
  21634588.646 7 113690527.681 7     94469.208          46.000  
  20957258.734 7 110131215.968 7     95027.576          45.000  
  20507376.281 7 107767050.720 7     93269.192          46.000  
  24821391.195 6 130437322.105 6     95045.794          41.000  
  24243757.269 6 127401806.338 6     96189.955          40.000  
 14 01 11 12 19 48.0000000  0 10G01G04G10G11G13G17G20G23G31G32       0.003008281
  22559384.033 7 118550393.242 7     96230.538          44.000  
  21903511.259 7 115103804.548 7     90654.945          45.000  
  23356963.712 7 122741796.736 7     90490.571          43.000  
  25026054.241 6 131512802.676 6     97078.559          37.000  
  21136807.351 7 111074757.315 7     90951.044          46.000  
  21634800.640 7 113691638.721 7     94470.234          46.000  
  20957576.099 7 110132884.732 7     95027.679          45.000  
  20507360.032 7 107766961.331 7     93269.859          46.000  
  24821711.913 6 130439009.494 6     95046.482          41.000  
  24244295.080 6 127404637.555 6     96190.212          40.000  
 14 01 11 12 19 49.0000000  0 10G01G04G10G11G13G17G20G23G31G32       0.003067542
  22559930.988 7 118553268.506 7     96230.877          44.000  
  21902998.338 7 115101104.130 7     90655.346          45.000  
  23356418.675 7 122738931.549 7     90490.520          43.000  
  25026764.361 6 131516525.383 6     97077.389          37.000  
  21136349.773 7 111072352.727 7     90951.188          46.000  
  21635012.421 7 113692753.633 7     94470.542          46.000  
  20957894.138 7 110134557.035 7     95028.079          45.000  
  20507343.366 7 107766875.752 7     93270.075          46.000  
  24822032.403 6 130440700.678 6     95047.190          41.000  
  24244832.754 6 127407472.050 6     96190.130          40.000  
 14 01 11 12 19 50.0000000  0 10G01G04G10G11G13G17G20G23G31G32       0.003126806
  22560477.662 7 118556139.300 7     96231.380          44.000  
  21902484.375 7 115098399.236 7     90656.044          45.000  
  23355875.803 7 122736061.737 7     90490.664          43.000  
  25027467.890 6 131520243.452 6     97079.195          37.000  
  21135890.815 7 111069943.890 7     90951.947          46.000  
  21635223.792 7 113693864.397 7     94471.456          46.000  
  20958211.504 7 110136224.808 7     95028.305          45.000  
  20507327.616 7 107766785.984 7     93270.998          46.000  
  24822354.558 6 130442387.615 6     95047.724          40.000  
  24245372.944 6 127410301.770 6     96190.037          40.000  
 14 01 11 12 19 51.0000000  0 10G01G04G10G11G13G17G20G23G31G32       0.003186069
  22561024.321 7 118559012.011 7     96231.195          44.000  
  21901970.778 7 115095696.265 7     90655.920          45.000  
  23355329.657 7 122733193.719 7     90490.818          43.000  
  25028178.006 6 131523963.135 6     97078.816          37.000  
  21135432.827 7 111067537.146 7     90952.245          46.000  
  21635435.210 7 113694977.408 7     94471.805          46.000  
  20958528.278 7 110137894.466 7     95028.233          45.000  
  20507309.998 7 107766698.400 7     93271.101          46.000  
  24822676.932 6 130444076.700 6     95047.724          40.000  
  24245913.636 6 127413133.127 6     96189.319          40.000  
 14 01 11 12 19 52.0000000  0 10G01G04G10G11G13G17G20G23G31G32       0.003245332
  22561570.086 7 118561885.026 7     96231.698          44.000  
  21901457.043 7 115092993.573 7     90656.362          45.000  
  23354781.058 7 122730325.811 7     90490.746          43.000  
  25028886.226 6 131527682.854 6     97078.569          37.000  
  21134975.506 7 111065130.904 7     90953.179          46.000  
  21635647.690 7 113696090.998 7     94472.513          46.000  
  20958847.387 7 110139564.392 7     95028.603          45.000  
  20507293.436 7 107766611.365 7     93271.912          46.000  
  24822998.455 6 130445766.315 6     95048.689          41.000  
  24246453.948 6 127415964.484 6     96189.668          40.000  
 14 01 11 12 19 53.0000000  0 10G01G04G10G11G13G17G20G23G31G32       0.003304593
  22562118.560 7 118564761.276 7     96231.821          44.000  
  21900941.266 7 115090294.142 7     90656.290          45.000  
  23354236.485 7 122727461.061 7     90490.941          43.000  
  25029598.239 6 131531405.513 6     97077.368          37.000  
  21134517.316 7 111062728.099 7     90953.271          46.000  
  21635861.042 7 113697208.172 7     94472.893          46.000  
  20959164.249 7 110141237.516 7     95028.828          45.000  
  20507277.925 7 107766527.859 7     93272.374          46.000  
  24823320.260 6 130447459.414 6     95049.038          41.000  
  24246992.540 6 127418798.802 6     96189.904          40.000  
 14 01 11 12 19 54.0000000  0 10G01G04G10G11G13G17G20G23G31G32       0.003363855
  22562664.154 7 118567636.394 7     96232.447          44.000  
  21900427.176 7 115087593.581 7     90656.906          45.000  
  23353691.667 7 122724595.027 7     90491.516          43.000  
  25030304.099 6 131535126.831 6     97077.800          37.000  
  21134061.041 7 111060324.359 7     90953.682          46.000  
  21636072.147 7 113698324.533 7     94473.734          46.000  
  20959481.838 7 110142909.458 7     95029.167          45.000  
  20507260.725 7 107766443.468 7     93272.969          46.000  
  24823644.366 6 130449151.604 6     95049.027          41.000  
  24247530.664 6 127421631.664 6     96189.945          40.000  
 14 01 11 12 19 55.0000000  0 10G01G04G10G11G13G17G20G23G31G32       0.003423117
  22563211.901 7 118570511.822 7     96232.509          44.000  
  21899914.476 7 115084893.328 7     90657.368          45.000  
  23353145.735 7 122721729.133 7     90491.875          43.000  
  25031008.824 6 131538848.183 6     97078.107          37.000  
  21133603.719 7 111057921.116 7     90954.103          46.000  
  21636284.130 7 113699441.509 7     94474.432          46.000  
  20959801.191 7 110144581.666 7     95029.454          45.000  
  20507245.157 7 107766359.660 7     93273.544          46.000  
  24823966.109 6 130450844.370 6     95049.941          41.000  
  24248072.597 6 127424464.541 6     96189.955          40.000  
 14 01 11 12 19 56.0000000  0 10G01G04G10G11G13G17G20G23G31G32       0.003482378
  22563759.046 7 118573389.088 7     96232.714          44.000  
  21899400.030 7 115082194.895 7     90656.967          45.000  
  23352598.412 7 122718864.930 7     90491.352          42.000  
  25031716.526 6 131542571.184 6     97078.077          37.000  
  21133146.215 7 111055519.917 7     90954.677          46.000  
  21636497.857 7 113700560.656 7     94474.997          46.000  
  20960119.744 7 110146255.675 7     95029.783          45.000  
  20507229.993 7 107766277.970 7     93274.026          46.000  
  24824288.429 6 130452539.174 6     95049.879          41.000  
  24248609.875 6 127427298.958 6     96189.935          40.000  
 14 01 11 12 19 57.0000000  0 10G01G04G10G11G13G17G20G23G31G32       0.003541641
  22564306.404 7 118576263.475 7     96233.463          44.000  
  21898885.606 7 115079493.575 7     90657.614          45.000  
  23352054.893 7 122715997.721 7     90491.803          42.000  
  25032427.992 6 131546290.961 6     97077.769          37.000  
  21132688.007 7 111053116.019 7     90955.283          46.000  
  21636710.329 7 113701677.203 7     94475.325          46.000  
  20960437.737 7 110147926.738 7     95029.978          45.000  
  20507214.704 7 107766193.630 7     93274.796          46.000  
  24824609.875 6 130454231.385 6     95051.388          41.000  
  24249147.498 6 127430130.184 6     96189.719          40.000  
 14 01 11 12 19 58.0000000  0 10G01G04G10G11G13G17G20G23G31G32       0.003600903
  22564854.490 7 118579139.687 7     96233.740          43.000  
  21898371.152 7 115076794.101 7     90658.137          45.000  
  23351508.462 7 122713132.204 7     90491.680          42.000  
  25033139.764 6 131550012.353 6     97078.559          37.000  
  21132232.090 7 111050714.158 7     90955.642          46.000  
  21636922.836 7 113702795.932 7     94476.003          46.000  
  20960756.262 7 110149599.600 7     95030.019          45.000  
  20507199.059 7 107766111.412 7     93275.104          46.000  
  24824933.044 6 130455925.651 6     95052.435          41.000  
  24249685.227 6 127432962.969 6     96189.894          40.000  
 14 01 11 12 19 59.0000000  0 10G01G04G10G11G13G17G20G23G31G32       0.003660169
  22565402.008 7 118582009.913 7     96233.730          43.000  
  21897857.460 7 115074088.636 7     90658.312          45.000  
  23350964.859 7 122710260.552 7     90491.742          42.000  
  25033842.161 6 131553727.471 6     97077.964          37.000  
  21131774.119 7 111048306.506 7     90956.135          46.000  
  21637135.215 7 113703908.996 7     94476.916          46.000  
  20961075.356 7 110151266.452 7     95030.686          45.000  
  20507183.088 7 107766023.485 7     93276.079          46.000  
  24825256.441 6 130457614.115 6     95051.911          41.000  
  24250222.333 6 127435789.480 6     96189.924          40.000  
 14 01 11 12 19 60.0000000  0 10G01G04G10G11G13G17G20G23G31G32       0.003719429
  22565948.362 7 118584890.025 7     96233.956          43.000  
  21897344.698 7 115071393.051 7     90658.538          45.000  
  23350418.163 7 122707398.645 7     90491.875          42.000  
  25034550.396 6 131557452.270 6     97079.103          37.000  
  21131318.829 7 111045908.940 7     90956.802          46.000  
  21637347.819 7 113705032.232 7     94477.358          46.000  
  20961392.698 7 110152943.093 7     95030.183          45.000  
  20507166.375 7 107765945.656 7     93275.956          46.000  
  24825578.342 6 130459312.715 6     95052.527          41.000  
  24250762.590 6 127438625.548 6     96189.924          40.000  
 14 01 11 12 20  1.0000000  0 10G01G04G10G11G13G17G20G23G31G32       0.003778691
  22566496.241 7 118587767.144 7     96234.336          43.000  
  21896830.220 7 115068694.453 7     90659.061          45.000  
  23349872.199 7 122704533.587 7     90492.439          42.000  
  25035261.234 6 131561173.750 6     97078.087          37.000  
  21130863.573 7 111043508.555 7     90957.315          46.000  
  21637561.243 7 113706152.784 7     94478.127          46.000  
  20961711.180 7 110154616.729 7     95030.973          45.000  
  20507151.433 7 107765865.135 7     93277.218          46.000  
  24825901.051 6 130461008.562 6     95053.205          41.000  
  24251301.647 6 127441458.313 6     96189.637          40.000  
 14 01 11 12 20  2.0000000  0 10G01G04G10G11G13G17G20G23G31G32       0.003837954
  22567042.912 7 118590642.919 7     96234.674          43.000  
  21896317.777 7 115065994.546 7     90659.133          45.000  
  23349329.192 7 122701667.062 7     90492.203          42.000  
  25035967.390 6 131564893.626 6     97078.231          37.000  
  21130405.057 7 111041107.033 7     90957.828          46.000  
  21637776.186 7 113707272.320 7     94478.425          46.000  
  20962029.397 7 110156288.972 7     95031.302          45.000  
  20507134.570 7 107765783.523 7     93277.321          46.000  
  24826224.500 6 130462703.299 6     95053.482          41.000  
  24251842.108 6 127444289.456 6     96189.832          40.000  
 14 01 11 12 20  3.0000000  0 10G01G04G10G11G13G17G20G23G31G32       0.003897216
  22567591.261 7 118593520.514 7     96234.654          43.000  
  21895804.156 7 115063296.447 7     90659.307          45.000  
  23348781.936 7 122698802.215 7     90492.491          42.000  
  25036670.244 6 131568615.146 6     97079.719          37.000  
  21129948.064 7 111038707.523 7     90958.290          46.000  
  21637990.775 7 113708393.990 7     94479.000          46.000  
  20962348.715 7 110157962.997 7     95031.158          45.000  
  20507121.343 7 107765704.010 7     93277.988          46.000  
  24826546.440 6 130464400.105 6     95054.200          41.000  
  24252380.196 6 127447122.129 6     96189.842          40.000  
 14 01 11 12 20  4.0000000  0 10G01G04G10G11G13G17G20G23G31G32       0.003956477
  22568138.435 7 118596399.932 7     96235.044          43.000  
  21895290.692 7 115060600.179 7     90659.933          45.000  
  23348238.041 7 122695939.025 7     90492.337          42.000  
  25037380.618 6 131572338.189 6     97078.354          37.000  
  21129490.884 7 111036310.025 7     90958.413          46.000  
  21638204.057 7 113709517.796 7     94480.077          46.000  
  20962666.655 7 110159638.783 7     95031.179          45.000  
  20507104.514 7 107765626.574 7     93278.563          46.000  
  24826869.911 6 130466098.957 6     95055.134          41.000  
  24252920.665 6 127449956.313 6     96189.955          40.000  
 14 01 11 12 20  5.0000000  0 10G01G04G10G11G13G17G20G23G31G32       0.004015739
  22568684.034 7 118599278.075 7     96235.228          43.000  
  21894776.987 7 115057902.641 7     90659.975          45.000  
  23347690.839 7 122693074.461 7     90492.511          42.000  
  25038092.218 6 131576059.671 6     97077.368          37.000  
  21129034.074 7 111033911.471 7     90958.968          46.000  
  21638416.968 7 113710640.652 7     94480.519          46.000  
  20962984.729 7 110161313.274 7     95031.764          45.000  
  20507090.540 7 107765548.142 7     93278.830          46.000  
  24827193.754 6 130467796.764 6     95055.032          41.000  
  24253459.129 6 127452788.956 6     96189.688          40.000  
 14 01 11 12 20  6.0000000  0 10G01G04G10G11G13G17G20G23G31G32       0.004075000
  22569233.595 7 118602158.039 7     96235.690          43.000  
  21894264.199 7 115055206.919 7     90660.241          45.000  
  23347149.090 7 122690211.551 7     90493.394          42.000  
  25038799.934 6 131579782.745 6     97078.744          37.000  
  21128578.411 7 111031514.943 7     90959.768          46.000  
  21638629.907 7 113711765.650 7     94481.124          46.000  
  20963303.905 7 110162989.554 7     95032.102          45.000  
  20507075.632 7 107765471.797 7     93279.671          46.000  
  24827516.662 6 130469496.653 6     95056.140          41.000  
  24253999.589 6 127455623.097 6     96189.688          40.000  
 14 01 11 12 20  7.0000000  0 10G01G04G10G11G13G17G20G23G31G32       0.004134263
  22569780.360 7 118605035.309 7     96236.019          43.000  
  21893751.085 7 115052508.487 7     90660.436          45.000  
  23346601.660 7 122687345.785 7     90493.117          42.000  
  25039506.329 6 131583502.874 6     97078.446          37.000  
